,Folder,Data_Source,Code,Name,Latitude,Longitude,COMID_v1,COMID_v2,Bias,Bias Corrected,Variability,Corrected Variability,Correlation,Corrected Correlation,KGE,Corrected KGE
0,Africa,Ethiopia,31013,Awash_at_Melka_Hombole,8.383333,38.783333,7055126,110884878,3.385242376979185,0.9555337449345671,0.785026601325597,1.0441054633747089,0.7618829214260405,0.7744238581250784,-1.40671861715979,0.7658907615615806
1,Africa,GRDC,1104150,SIDI BELATAR,36.02,0.27,7000293,150293767,0.7863389106132896,0.9457876734802577,0.769263945325348,0.9836794249945725,0.6110984867668521,0.6078392281253493,0.4998654430657964,0.6037735388537095
2,Africa,GRDC,1104450,FER A CHEVAL,36.67,2.82,7000070,150234194,0.8490955937152785,1.2318633112239243,0.7686363550751121,0.9184517408886724,0.6650967377197172,0.6952758152517071,0.5658785065041703,0.6085060122730843
3,Africa,GRDC,1104600,SIDI YAHIA,36.42,4.6,7000155,150275877,1.8477249956798443,0.9268580284190675,0.9277774997529418,1.1323324657412532,0.5463459233733973,0.5601737036698352,0.03581341065006316,0.5349099007295298
4,Africa,GRDC,1104800,BOUCHEGOUF,36.45,7.72,7000140,150250082,0.20349031327322895,0.8809596833427679,0.9490576102206028,1.1503917846802125,0.6202506934683414,0.6888714465369378,0.11612651135058327,0.6345013506602644
5,Africa,GRDC,1107700,PIERRE DU CHAT,35.15,-1.45,7000697,150488274,1.3229154626319481,2.032918794026896,0.45806243966330107,0.5830416417157297,0.31238435195960235,0.32209918794703074,0.06684085240484605,-0.3039651140192232
6,Africa,GRDC,1107800,BENSEKRANE,35.07,-1.22,7000709,150531926,0.9084097197918463,1.1558966290787143,0.7793945212368208,1.211221397680523,0.30951048640182593,0.1611238510511522,0.2693623845722267,0.12100544309337768
7,Africa,GRDC,1112100,KAYES,14.45,-11.28,7039846,140568540,3.0951794325951054,1.0837165938129238,0.8002292178277959,0.8796445946261073,0.8487314754367982,0.8759728727463101,-1.1101107522361877,0.8079671382883775
8,Africa,GRDC,1112110,KABATE,14.31,-11.13,7038813,140673368,2.882946360182051,0.2271398345533264,4.144036995668622,2.4916056102161206,0.35882931240429394,0.40799246803814104,-2.720424098955354,-0.7811998904283697
9,Africa,GRDC,1112200,GOURBASSY,13.23,-11.38,7042358,140661803,2.5333679054562035,1.12051345312044,0.6902543092929122,0.8183249430204235,0.713809925388234,0.7505121910806597,-0.5903032054300348,0.6686791803841508
10,Africa,GRDC,1112300,GALOUGO,13.83,-11.13,7040646,140587514,3.2689347587072284,1.0811615767582905,0.7878170692043316,0.8675449532164703,0.8287694690433244,0.8654200283283321,-1.2852585040039943,0.7944682269441878
11,Africa,GRDC,1112320,OUALIA,13.36,-9.23,7042047,140677803,0.2687191487263359,0.5700988396102681,1.3119683085200222,1.3061221073046483,0.35215713759491085,0.39814212028034096,-0.025571198566729514,0.19952597814437467
12,Africa,GRDC,1112330,SIRAMAKANA,13.34,-9.53,7041180,140607909,2.7755030066152133,0.7359734273087424,0.6868258446843468,0.9362065774761683,0.48257873523703915,0.5468140398122553,-0.8756902045077264,0.47164675987017524
13,Africa,GRDC,1112340,TOUKOTO,13.45,-9.88,7041703,140631222,4.392207026845147,0.8777174528166827,0.8447569299122499,0.8503806309943751,0.4954521151098889,0.5615218353869632,-2.4330361914688505,0.5208318898656767
14,Africa,GRDC,1112350,DIBIA,13.14,-10.48,7042093,140628328,2.8783314701567106,1.1986538268185434,0.9106376991772321,0.9425245108034237,0.8493856976317881,0.8591398898742284,-0.8864780413954656,0.7497834030431193
15,Africa,GRDC,1112400,FADOUGOU,12.31,-11.23,7044169,140593434,1.4004397468074772,1.156988506447085,0.8724235105121274,0.857943603927965,0.7097190825793069,0.8056773897947154,0.48922533098059284,0.7126210034493538
16,Africa,GRDC,1112480,DAKA SAYDOU,12.15,-10.2,7044818,140618231,2.404942626779411,1.0581294273403952,0.811300723904913,0.9197540623974084,0.8673091921020272,0.8859602226288859,-0.4237549128418341,0.848925476510781
17,Africa,GRDC,1112500,BAFING MAKANA,12.33,-10.16,7044698,140667691,2.5761761899763185,1.114012681507662,0.8884799062381142,0.9475532158820604,0.8510755003117525,0.8759886930824801,-0.587118968372667,0.823567687335135
18,Africa,GRDC,1134020,GUELELINKORO,11.15,-8.55,7048067,140603729,3.334556140972829,1.4313438583158928,1.070426535475491,0.8640064705018677,0.7744908842617478,0.8927932741605338,-1.3464796256379636,0.5351935389461342
19,Africa,GRDC,1134030,BANANKORO,11.6833,-8.6667,7046247,140645914,2.1724494822626226,1.296599109461954,0.8785617887722632,0.9537117268278671,0.8395488435529218,0.8728532682156591,-0.18959219954120776,0.673993976481536
20,Africa,GRDC,1134040,GOUALA,11.97,-8.23,7045656,140597846,2.9302314460809504,1.9595079930910064,1.064140245402538,1.0727321324995724,0.7851170379892619,0.7974878839406635,-0.9432143715716399,0.016660430444143892
21,Africa,GRDC,1134050,SELINGUE,11.58,-8.17,7046215,140578944,2.8928283257930194,1.6644651523847536,0.9422097912652605,0.8949919478172338,0.5962751219063661,0.6529811993651486,-0.9362676871604632,0.24305701816387582
22,Africa,GRDC,1134060,YANFOLILA,11.13,-8.2,7047806,140587713,2.958291325283656,1.3441929616664399,1.3369189850518004,0.9097213642110245,0.4821286290057027,0.9710363184812156,-1.053438597588218,0.6429875047176143
23,Africa,GRDC,1134080,MADINA DIASSA,10.8,-7.67,7048474,140613947,4.055078284272168,1.3634256527065896,0.8509001081553681,0.7942994113595901,0.6799186158880605,0.818085226968924,-2.0754164259876213,0.5444959694369658
24,Africa,GRDC,1134100,KOULIKORO,12.8667,-7.55,7043104,140610883,2.1728258619156753,1.4821161584435627,0.9445594313444841,0.9841620248986366,0.8162873950609276,0.8563434728572358,-0.18842100294659603,0.4966869468428128
25,Africa,GRDC,1134110,BOUGOUNI,11.4,-7.45,7046813,140656126,3.7546238901792734,1.9777671555077285,0.8486643993744005,0.7745598475183757,0.7031901864093397,0.8177224408331757,-1.7746984170909146,-0.01984164521577947
26,Africa,GRDC,1134150,KOLONDIEBA,11.07,-6.85,7047830,140628488,5.675956354077988,1.3276051564121913,0.8971986904351794,0.8790459958533046,0.5634435182566893,0.7381528292722352,-3.697416044618855,0.5635152345784444
27,Africa,GRDC,1134200,DIOILA,12.52,-6.8,7043969,140673515,3.706995852234992,2.639504934156587,0.9076379097670723,0.7998353258723822,0.6971663340696577,0.796477760571525,-1.725447766689073,-0.6641705525078825
28,Africa,GRDC,1134220,PANKOUROU,11.42,-6.57,7046695,140584781,2.400706531171819,2.255257337833514,0.9606448342533866,0.904626996536874,0.6605518544693746,0.7956256555431978,-0.4417880076635796,-0.27535715258377924
29,Africa,GRDC,1134250,KIRANGO AVAL,13.7167,-6.05,7041419,140632663,2.892783785034592,1.8914795250373013,0.8735651956387533,0.9002527058335383,0.8641760877888621,0.8780066177988365,-0.9018581313473628,0.09470024215448825
30,Africa,GRDC,1134300,DOUNA,13.2167,-5.9,7042161,140632696,2.593878452952228,2.350589099497527,1.0023724221218038,0.9559184791577722,0.6924569587198199,0.7849741880043283,-0.6232796658037623,-0.36830924720463054
31,Africa,GRDC,1134310,KOUORO 2,12.02,-6.68,7045676,140597840,0.41704593224728614,0.5806043948710345,1.8209998240134362,1.5169894534965,0.3668149465921256,0.550128098289724,-0.18945343246327284,0.19653531715667727
32,Africa,GRDC,1134320,KOUORO 1,12.02,-6.68,7045676,140597840,0.341499441009822,0.9654429232411125,4.0200807372144505,3.299482026953045,0.1542126007541738,0.32763830661633603,-2.2046633162014344,-1.396013779293423
33,Africa,GRDC,1134350,KLELA,11.68,-5.58,7046136,140593498,0.9618925483391303,1.0294246174098018,1.5902535693073303,0.9369202379026618,0.4939767877287427,0.8162447063320263,0.2215971831310919,0.8035035052552507
34,Africa,GRDC,1134400,KE-MACINA,13.95,-5.37,7041419,140622448,3.0222808569171167,1.9776062892815298,0.8643824421844972,0.8591949178527113,0.916551681303031,0.9096713499149864,-1.028540265347134,0.00818379070137809
35,Africa,GRDC,1134420,KARA,14.17,-5.02,7039566,140431694,0.0008359871306742055,0.44471191079439365,6.068202965801523,1.3319647070785572,0.044361247940826604,0.7221918576122728,-4.2534041774462485,0.2959241569715053
36,Africa,GRDC,1134450,BENENY-KEGNY,13.38,-4.92,7041724,140606476,3.7174430318861593,3.6477130522311145,1.0113479693421525,0.8301999642426985,0.6965695334843925,0.7799790540710895,-1.7343546690151062,-1.662259505710448
37,Africa,GRDC,1134460,TILEMBEYA,14.15,-4.98,7039904,140623891,4.384569199559195,2.007108099317758,1.0197614729207478,1.0243702859288386,0.9542544113772724,0.9550738335379007,-2.3849360173118788,-0.008404182349845746
38,Africa,GRDC,1134480,SOFARA,14.02,-4.25,7040218,140679229,3.456760532935124,2.439021458318023,1.1377896430932233,0.7967943042477569,0.6556588241456724,0.7841524988846986,-1.484598387530704,-0.469239754438874
39,Africa,GRDC,1134500,NANTAKA (MOPTI),14.53,-4.22,7039063,140680647,0.8391434601781609,1.5632678953516075,1.4321570581296392,0.9347970728924785,0.6600855544014709,0.845353114540174,0.42713319207578915,0.41226042942503627
40,Africa,GRDC,1134505,MOPTI,14.53,-4.22,7039063,140666091,0.8906601096198795,0.9987072071441209,1.2574679514702483,1.05323049750301,0.898827209246026,0.973753202794819,0.7025426227985423,0.9406362775651993
41,Africa,GRDC,1134600,AKKA,15.4,-4.23,7036843,140632534,4.6229336076370515,0.988934083907475,1.1719173743606401,1.0357457373493963,0.8331929520816754,0.9884665404509195,-2.6308439928187917,0.9608434816819842
42,Africa,GRDC,1134620,GOUNDAM,16.42,-3.65,7034167,140529084,0.0034968354872126966,0.2776507608344012,2.612767583507549,2.5314733281864545,-0.057341018787027916,0.30788582129482417,-1.1707159798799953,-0.8292678903414765
43,Africa,GRDC,1134630,TONKA,16.13,-3.75,7034867,140479603,7.169807374123613e-06,0.41243855268070384,5.686232610791991,1.5967445065997468,-0.007160945542567415,0.7701398270210269,-3.8964410456078378,0.13157144240021412
44,Africa,GRDC,1134650,SARAFERE,15.82,-3.7,7035658,140660169,0.025583851916435658,0.7020919421943156,4.414608082262063,1.522254771263542,-0.021696901303772984,0.5972965567910119,-2.694983050465746,0.2763500015992094
45,Africa,GRDC,1134700,DIRE,16.2667,-3.3833,7034775,140504347,4.137322189570794,1.3976183744391524,1.2895502898784927,0.9089305782937249,0.6268253328231843,0.8274096798521317,-2.1726785566401974,0.5570762708204797
46,Africa,GRDC,1134730,KORYOUME,16.6666,-3.0333,7033566,140556730,4.3520463382347465,1.252657585190328,1.2916050692069596,1.018797889823681,0.5685065447677211,0.820533455158449,-2.3922610117690617,0.6895206017569031
47,Africa,GRDC,1134850,TOSSAYE,16.93,-0.58,7032840,140448965,4.890045685090585,1.6437857808891785,1.3088392092325931,0.7869242413400234,0.49971809060410816,0.7579658019806917,-2.9342240757384537,0.2799708591907799
48,Africa,GRDC,1134900,ANSONGO,15.6667,0.5,7036338,140561171,4.044499917708005,1.2663184827434575,1.3382160768118998,0.9400429703736978,0.4334503024896333,0.8001091769571879,-2.1151803195460723,0.661655913618814
49,Africa,GRDC,1147010,KINSHASA,-4.3,15.3,7078330,130800352,1.5392636475925054,1.074319863953527,1.8451377328682441,0.9244985025286331,0.5324838017903766,0.7816121956720143,-0.10618012309064273,0.7572714450714788
50,Africa,GRDC,1159100,VIOOLSDRIF (27811003),-28.757778,17.721389,7104378,120552054,2.349298052117744,1.9533969663693602,0.5819984258700628,0.6233109342532658,0.4910829766942293,0.4352808921692996,-0.5014416692080481,-0.17037092346168126
51,Africa,GRDC,1159103,PELLA MISSION,-28.963403,19.151922,7104513,120533763,3.202757999382953,1.312583318833801,0.5443686471558997,0.7590986862606609,0.473314406400399,0.5294929926954296,-1.3102251942279346,0.38590015624721397
52,Africa,GRDC,1159105,SENDELINGSDRIF,-28.07583,16.89833,7103974,120585290,6.151181856374407,0.7735776828827098,0.9368654045365258,1.0330589667309205,0.27979657203202507,0.4035515010901555,-4.201668335471038,0.36116451818806616
53,Africa,GRDC,1159110,HARDEHEUWEL (27814003),-31.806667,20.357778,7106039,120359226,0.4950965899358661,2.3106473741271056,0.7104782378497707,0.4520324549136906,0.20327290953036575,0.4084953211529052,0.01332661891526965,-0.5388121246182713
54,Africa,GRDC,1159120,BONEKRAAL (27814011),-31.815278,20.578056,7105928,120407484,0.7349656662226505,4.439682189583239,0.32998065499650336,0.24310808851116295,0.2581890033907605,0.1722481535523551,-0.034143450131610686,-2.6179375409632017
55,Africa,GRDC,1159125,LEEUWENKUIL,-31.43716,20.474169,7105808,120429090,1.3366033470204632,2.3509659603316533,0.5804123628577499,0.4055847980311013,0.2865359204125198,0.306982249236905,0.10647518706551562,-0.6305557522450105
56,Africa,GRDC,1159130,HOL PADS LEEGTE (27814016),-30.474444,20.519167,7105299,120425703,1.0999287017761377,2.336369271857529,0.47628036238476845,0.4551481810581267,0.5232092556011271,0.5404051032174098,0.28473961510025936,-0.5145870079060793
57,Africa,GRDC,1159131,WINDHOEK (27814013),-31.366111,21.322222,7105717,120447390,0.6836748053864073,2.182664504539327,0.16042009633455248,0.2326455704464,0.15241844441661712,0.15040030547841227,-0.23424087468830668,-0.6460096572571981
58,Africa,GRDC,1159290,KAKAMAS SOUTH NEUSBERG,-28.77466,20.722429,7104373,120515447,2.3719467264019003,1.1647937156902992,0.6460199618901322,0.8054551720680666,0.44406716254541545,0.381888228574843,-0.5220384381563625,0.33136944372813304
59,Africa,GRDC,1159300,UPINGTON,-28.457778,21.239167,7104190,120548707,1.944349174662676,1.3780882356059843,0.7195215954918298,0.7524362698565761,0.514457953926284,0.49933208686059927,-0.09827800560103017,0.32553215522640755
60,Africa,GRDC,1159301,PRIESKA (27815102),-29.651667,22.745833,7104884,120482224,2.049760129542486,1.3049249529209308,0.6757000293184773,0.8058217153885164,0.5356628130657376,0.5486046280341149,-0.19280166990624115,0.4216902084862215
61,Africa,GRDC,1159302,MARKSDRIFT (27815208),-29.161944,23.695833,7104688,120523792,1.681941387523749,1.307505136308703,1.0293230610911321,0.918471988239186,0.35103799249045675,0.34410452030893957,0.058163716392075515,0.2710246191831499
62,Africa,GRDC,1159303,VLUYTJESKRAAL (27815205),-29.814722,24.4375,7104961,120477242,4.004068269559226,0.5961458728614734,4.004336252531309,2.5445138024130016,0.08057045373758301,0.035357672082362936,-3.346931466792034,-0.8652495443402333
63,Africa,GRDC,1159304,IRENE,-29.182852,23.575107,7104640,120498831,1.80080533118887,0.9655281349938564,0.7230035885547516,0.8017775520729502,0.46699320250114906,0.4587558553100014,-0.0010556610868559524,0.42256976828329995
64,Africa,GRDC,1159305,DE EERSTEPOORT,-30.534722,24.9625,7105409,120473960,2.9159017237174174,1.6767505652249277,0.5936929083609007,0.5979425153806561,0.3028160704820567,0.3752665874059674,-1.0789012240213998,-0.004954419504724861
65,Africa,GRDC,1159310,SHANNON VALLEY (27817207),-29.144167,26.318056,7104660,120447247,0.4691602430292451,0.6660818520461125,1.4904231627037636,1.4105040192831364,0.3015376003844895,0.26513378757726813,-0.0050648982895529215,0.09443761697987063
66,Africa,GRDC,1159320,KROMDRAAI (27817212),-29.658056,25.972778,7104885,120448944,0.8454207642216405,0.7134955138119577,1.8456121662095513,1.4710541363913323,0.28731079274916294,0.33281036735468833,-0.11663807113462599,0.1344834918231519
67,Africa,GRDC,1159321,RIVIERA (27817208),-29.8125,26.2117,7104973,120433978,1.2721893944073634,2.540638870080209,0.6474072799025072,0.5761916791922447,0.48309793707120124,0.4330590077651717,0.3176537276765967,-0.6954656320504184
68,Africa,GRDC,1159325,OS POORT (27817209),-29.9025,26.214444,7105005,120405697,2.846628358358945,2.8820214058400038,0.5009109902445148,0.8355459962271925,0.261612824335963,0.15228171667949514,-1.0504491592671292,-1.070670417829152
69,Africa,GRDC,1159330,KLIPDRIFT,-29.0425,24.599167,7104559,120530440,0.9077478000924243,0.66010223572447,0.7395672037285367,1.7295407897660777,0.2562365468126992,0.6575629316470462,0.20657717195768877,0.12534383905778046
70,Africa,GRDC,1159333,LIKATLONG,-29.160833,26.572222,7104638,120453905,0.6093289559119492,0.3828432187939792,2.066673777758076,1.757224477745456,0.30780739106534016,0.3675155464807576,-0.3302433689777611,-0.16374738935431754
71,Africa,GRDC,1159335,TWEERIVIERE,-29.028611,24.638333,7104564,120482183,1.780219517303311,1.4061241400425437,0.5530883196722525,0.656350835448422,0.31171445936177633,0.43657123389610447,-0.1323469126756316,0.22509126995777673
72,Africa,GRDC,1159337,GLEN,-28.948611,26.321111,7104509,120495491,0.3569987016544396,0.7142921056230842,1.039345884613371,1.2712548491550217,0.3110379541224322,0.4745280852789329,0.056778144353148985,0.3432436317324141
73,Africa,GRDC,1159400,TAUNG (27817303),-27.573333,24.745833,7103626,120605224,4.044112950447815,1.9606304110535566,1.0345679583313931,0.883124443744704,0.20406950236861815,0.2307881452741642,-2.146636927878245,-0.23618670100501826
74,Africa,GRDC,1159403,ESPAGSDRIF,-27.903208,24.615143,7103900,120543679,1.1867443146879486,0.6167524584468648,1.5252125324895471,1.3718768335572802,0.3026481046437627,0.3431673504998357,0.10723950058860032,0.15347759220885537
75,Africa,GRDC,1159405,LLOYDS,-28.386511,24.297076,7104138,120507102,4.6838102694188075,0.24720773819117597,7.542552519175229,3.01092472894286,0.09471568350940528,0.23408134271841263,-6.562737021801396,-1.2797249493053302
76,Africa,GRDC,1159413,FIZANTKRAAL,-27.935,26.124444,7103865,120593602,0.009185221964837136,0.6282175582036374,1.8435686172316723,1.655954512782163,0.14754657793236692,0.1748168289671972,-0.5556345242844938,-0.11777715696068092
77,Africa,GRDC,1159415,VAALKOPPIES,-28.144444,26.418056,7104129,120623567,0.24721576111304824,0.34906116840375445,1.6462187148040588,2.070234935219169,0.32029374391395266,0.4308613081195088,-0.20261520539286715,-0.3758790025430654
78,Africa,GRDC,1159417,BLOUDRIF,-28.117222,26.719167,7103989,120565325,1.7526225533452926,0.5182888933567457,1.9201004988709316,1.6595026048719024,0.37772073852149385,0.44559672577199516,-0.3417366042158796,0.012907164157785145
79,Africa,GRDC,1159419,MOND VAN DOORN RIVER,-28.116667,26.725278,7103989,120588622,10.569638610110777,1.0834430213079873,1.0016545672580743,0.9603599496916241,0.18093976039455886,0.19500358175973234,-8.604626257268851,0.18972023055421428
80,Africa,GRDC,1159450,SCHMIDTSDRIF,-28.711492,24.072902,7104331,120547058,2.607241297550449,1.2015054655112678,0.48028191856060826,0.7482824840539842,0.363019349376244,0.304807753379547,-0.8052910629579253,0.23367211963407064
81,Africa,GRDC,1159490,DE HOOP 65,-28.516227,24.600696,7104265,120588646,2.8544628780555676,2.124045023108575,0.4217751145179619,0.5080161989379388,0.4671776662334993,0.5144490397737699,-1.0142681608061115,-0.3195775875102018
82,Africa,GRDC,1159500,DE HOOP 65,-28.498889,24.603056,7104265,120560357,137.53659843335316,6.757155617752542,0.2935661103005448,0.22783762563738363,0.04870541851142569,0.06649987212355916,-135.54173985258873,-4.8832387362868666
83,Africa,GRDC,1159510,GROOTDRAAI (27817602),-27.398333,26.613056,7103518,120570270,4.338056128969561,1.2033716112181994,2.4856968105430672,2.7379442888327596,0.07799367377042407,0.09048911394373081,-2.768289983350068,-0.972059942088666
84,Africa,GRDC,1159511,MOOIFONTEIN (27817603),-27.399722,26.625556,7103518,120570270,1.3394291440788213,2.2993224923867333,0.5433232388813606,0.5230007675723131,0.4144165994494954,0.43672148205954675,0.18349909553253718,-0.49433928400877836
85,Africa,GRDC,1159512,KLIPFONTEIN (27817604),-27.935556,27.996389,7103994,120575298,3.6530495454982597,0.6281904710461582,1.3126922996317842,1.4768618118750318,0.44007994132688705,0.49801033510661985,-1.729461272343324,0.21410360917905724
86,Africa,GRDC,1159513,KROONSTAD,-27.671389,27.236944,7103697,120517040,0.7957000595321544,0.9563657870555853,1.1437768382342604,1.0722374976983553,0.3892186159894355,0.42044921472317504,0.34010292928240204,0.41433686019352145
87,Africa,GRDC,1159520,DANKBAAR (27817703),-27.355833,27.285556,7103537,120492060,1.8543342504558182,2.2904365318533313,0.8805686956182999,0.8109349359004274,0.4096342451746003,0.36083314666718846,-0.04531458061139815,-0.4524139587610678
88,Africa,GRDC,1159525,ARRIESRUST,-27.04628,27.00464,7103421,120538632,1.1376677323973274,1.9898872839951949,0.5858862753521639,0.5636471838549173,0.43921142954813,0.4286687064509627,0.2894182649162885,-0.22339693565152619
89,Africa,GRDC,1159530,KLIPSPRUIT (27817465),-27.37,26.350556,7103497,120502045,2.7218037605870093,1.5103634510973238,1.242122208863353,0.860568746596345,0.2251253886476518,0.4028090623264371,-0.9035918725700867,0.20215982635548246
90,Africa,GRDC,1159535,KLIPPLAATDRIFT,-27.389722,26.463889,7103514,120546975,1.531160702873796,1.3410708748172433,0.7425503116994069,0.8231669071393904,0.5864928446571575,0.6423652809472479,0.2793057501247931,0.4751172734303504
91,Africa,GRDC,1159540,LEEGTE (27817467),-27.560556,26.233333,7103772,120600233,5.556742809463508,1.74658340222081,0.6136234473839388,0.45312169497325916,0.10473117621725597,0.18306413479555125,-3.6599032327770704,-0.23444192444920708
92,Africa,GRDC,1159545,PILGRIMS ESTATE,-27.01011,26.69808,7103262,120615174,1.4879390202496332,1.20689458453553,0.7200213517529956,0.844123994975383,0.5830895960941987,0.6353172379766904,0.2997951615125113,0.5526788458282865
93,Africa,GRDC,1159546,BUFFELSFONTEIN,-26.91606,26.81722,7103198,120495360,1.9085733126512479,0.17612352878027598,8.114296135257868,4.618456468163563,0.14657267579685868,0.2392880666821804,-6.2226763157643745,-2.7882294409547486
94,Africa,GRDC,1159547,HOOGEKRAAL,-26.8805,26.96428,7103152,120545276,1.8576722209203234,0.17872586436795185,10.58339351971626,3.5826290559188,0.11929940258002977,0.21220542258302644,-8.661918367207099,-1.8222481008128586
95,Africa,GRDC,1159548,WITRAND,-26.64428,27.09033,7103047,120640110,1.7949062964901712,0.23879975442134624,8.412032917338435,3.5360327153551956,0.10555784934037987,0.15068083552702047,-6.508004711558513,-1.7806889057141806
96,Africa,GRDC,1159549,BLAAUWBANK,-26.37022,27.24811,7102878,120560221,2.618097108597276,0.16358497180848336,20.019677767819644,5.84916127192139,0.10425457707007733,0.16735071241656238,-18.10938880517228,-3.9907173809583822
97,Africa,GRDC,1159550,DE VAAL,-26.97056,27.20967,7103238,120538625,1.4620899640077052,1.557896763178567,0.6160614793194756,0.6743645587488823,0.5331555366153523,0.5769050444119621,0.23915857401696938,0.2277975780872118
98,Africa,GRDC,1159555,WOODLANDS,-26.73828,27.59197,7103080,120548596,1.1205468278409627,0.9652343022738258,0.8115938463579487,1.138998232051949,0.4704235353300478,0.44744654908180465,0.4251264066205198,0.42917211142625344
99,Africa,GRDC,1159560,KAALPLAATS,-26.72867,27.718,7103062,120516979,0.46496719202259906,0.07745486144199244,17.518334641575752,8.732679683367227,0.1276471245494345,0.20220471514304447,-15.55000419867018,-6.828275795778869
100,Africa,GRDC,1159570,KOOKFONTEIN,-26.619944,27.980528,7103010,120578541,0.06005609387678251,0.4536694839822764,6.988590863730521,2.168205277638223,0.41420230241482664,0.3846075622665297,-5.090145648694367,-0.42894662456423926
101,Africa,GRDC,1159580,UITVLUGT,-26.67075,28.03044,7103025,120621809,0.5105023389913312,0.3139313486623684,2.9855046597830697,2.5620299996870513,0.45300008795560526,0.5325765023769228,-1.116848038459496,-0.7689298008685244
102,Africa,GRDC,1159600,DIEP KLOOF,-31.04,26.34,7105560,120405766,0.4229464524944447,1.2254382093955198,1.7272730754042214,1.0124999089658917,0.15315875153532832,0.30494635466666803,-0.25660535690321806,0.2691934566037554
103,Africa,GRDC,1159601,DIEPKLOOF (27819101),-31.000833,26.353056,7105550,120404102,1.3647045722679707,1.5751173305914394,1.3626112764068128,0.7968667744441691,0.30978085935805083,0.3563180140389801,0.13924520046702493,0.11323647440703688
104,Africa,GRDC,1159650,ALIWAL NOORD (27819103),-30.678056,26.716389,7105402,120442352,1.2925963780520526,1.321884347196143,0.6754656529148735,0.7382792346893378,0.6691737455971819,0.6554294140258402,0.4519295725097484,0.46070770385322424
105,Africa,GRDC,1159651,ORANJEDRAAI (27819109),-30.336389,27.358333,7105286,120512219,1.3273548632079228,1.3512947422115649,0.6644658215122861,0.8012601864124531,0.656226826997885,0.6465069149278228,0.4186873596116759,0.46347146338321554
106,Africa,GRDC,1159653,MAGHALEEN,-30.159722,27.401389,7105227,120458959,0.5439646204721016,0.7821289312294585,1.2890761176897074,1.2483914867989596,0.5287243371155319,0.5291683005733602,0.28331735082611165,0.4248055785159305
107,Africa,GRDC,1159655,LESOTHO - MANTILANE,-30.061861,28.50975,7105099,120492233,2.1187798379395204,1.3453434676391305,0.6458616399077992,0.7572487812439156,0.5772593592230739,0.5519971479072387,-0.24731389522976888,0.384454046937329
108,Africa,GRDC,1159660,ROODEWAL (27819111),-30.830556,26.920556,7105507,120375803,1.0777996718236296,1.2337056004497022,0.9634797213407771,0.8284730100138382,0.5578928390871979,0.5802550275127989,0.5496165395803371,0.4898768208525024
109,Africa,GRDC,1159670,THE POPLARS (27818012),-28.694722,28.234722,7104349,120502128,4.783871330548993,0.6244905370981214,1.6497933833359955,1.4731397447159782,0.4106182220028449,0.4355406568153556,-2.8842353903198164,0.1732697387495734
110,Africa,GRDC,1159673,FICKSBURG,-28.883889,27.889444,7104482,120513790,0.5390276272555807,0.5365425060887312,1.500297401028729,1.5092714626397556,0.5253018269371947,0.5533491034927369,0.1704631572866182,0.1792398068421619
111,Africa,GRDC,1159675,WILGERDRAAI,-29.616667,27.065556,7104870,120462252,0.9721576340966382,0.7419675519726586,1.4479018673609763,1.3503392720710603,0.44067026626176636,0.46553914098593513,0.2828939888913009,0.3108216779321079
112,Africa,GRDC,1159800,ELANDSFONTEIN ENGELBRECHTSDRIFT,-26.820222,28.063306,7103167,120638459,2.70332654269188,2.7627091800389096,0.7893275736338797,0.9020478583347844,0.1918726529656562,0.15608701962370153,-0.8970434869276,-0.9567645218313456
113,Africa,GRDC,1159805,FRANKFORT,-27.271667,28.491111,7103436,120606872,0.8779070798710957,0.8655416009110678,1.0227885884038403,0.9771249478932343,0.501614874263609,0.49779009071308955,0.4863719882421511,0.47959907563455206
114,Africa,GRDC,1159810,SLABBERTS (27817822),-27.298333,28.495556,7103453,120606874,0.9591226320861568,0.7875388134418669,1.146902560730655,1.1942469716554607,0.5768701606785657,0.6042613381374293,0.5502331909967452,0.5106323158566912
115,Africa,GRDC,1159811,FREDERIKSDAL,-27.430833,28.526389,7103650,120590241,0.3022651043693643,0.4028669835270635,2.833180223180783,2.6076573832136187,0.2935097530379019,0.28681195339597154,-1.084829053974068,-0.8573549178824704
116,Africa,GRDC,1159813,BALLINGTOMP,-27.301389,28.585556,7103463,120541977,1.070751481031133,1.1488623166036722,0.9474378465043624,0.933143377584195,0.6247436540450427,0.6331182967486565,0.6145316131929048,0.598462976244944
117,Africa,GRDC,1159815,BAVARIA,-27.802778,28.7675,7103770,120616889,1.0756419072198002,0.9018798931565993,1.1638141169586005,1.1044017611242842,0.5884965811888441,0.5894129522468332,0.5506762562071257,0.5651333458685597
118,Africa,GRDC,1159820,C8H003 (27817803),-27.847778,28.945,7103808,120601916,1.3807060828077715,1.9943754554415853,0.7985904768982405,0.686262151929777,0.48679415416875815,0.46026831358283016,0.3300125690147043,-0.17410573502522197
119,Africa,GRDC,1159825,VOORSPOED (27817812),-28.085,28.836667,7103956,120472139,1.0883329294575563,0.8656784860804804,1.1971888101447248,1.1608738824834268,0.33286266070264375,0.398811871416004,0.29874515134824076,0.36332909512272327
120,Africa,GRDC,1159830,C8H005 (27817805),-28.375556,28.861667,7104258,120467167,2.051773472642454,2.0442291649676063,0.5387250243642173,0.5974747922505448,0.3926874856050537,0.39446926888729794,-0.2991653209052614,-0.27244196652129093
121,Africa,GRDC,1159850,RIETFONTEIN (27817428),-26.248056,27.589444,7102972,120340564,17.21848772612261,0.7107761419783913,2.490846164915379,2.622725878473241,0.20639666241010618,0.18415271163494323,-15.306188170975659,-0.8391564682343562
122,Africa,GRDC,1159855,MIDDELVLEI (27817427),-26.233611,27.651944,7102797,120313938,551.0639207024354,5.28601440737079,0.66252113292013,0.42551517354779844,0.04131493754591042,0.05428483459551839,-549.0648596552682,-3.4265482590941927
123,Africa,GRDC,1159860,MIDDELVLEI (27817426),-26.232778,27.668611,7102797,120313938,57.31531855125451,0.7456112796353769,2.002360882002546,1.6875896586590293,0.06208763016372708,0.05592418549432785,-55.33204692251588,-0.19531263829934442
124,Africa,GRDC,1159880,NOOITGEDACHT,-27.00231,28.76528,7103279,120520325,0.8651605841647194,1.3995839851610403,0.6395965748634581,0.7326108136757227,0.6022963573479883,0.6648327823483974,0.44661000705503384,0.41391007349669084
125,Africa,GRDC,1159890,GOEDGELUK,-26.84108,29.72336,7103147,120548604,0.5432678980957296,0.7372062881339719,1.4287481302042546,1.3262094068209072,0.45064984777535644,0.5042726335796548,0.16680448764244027,0.350986337653186
126,Africa,GRDC,1159900,DELANGESDRIFT,-27.169444,29.233056,7103408,120536977,1.369064616815372,1.4943474750377022,0.5415618218403382,0.5885411367087352,0.4931382425373297,0.5352431646868174,0.2232869926687373,0.2064782685852794
127,Africa,GRDC,1159910,ELANDSLAAGTE (27817908),-26.861389,28.884444,7103187,120528636,0.706576211957229,1.1963265721946768,0.7783891769678173,0.8222267423754428,0.3827631067876799,0.4064536627992058,0.2815361814142847,0.35004253332957413
128,Africa,GRDC,1160091,CITRUSDAL,-32.596389,19.008333,7106385,120360942,0.06493681325029872,0.6326685529697822,1.6279629245769787,1.5370655630173993,0.7043603742688358,0.734591383252418,-0.16450993390363222,0.2972813188761988
129,Africa,GRDC,1160095,VISGAT,-33.088833,19.218778,7106385,120246157,0.7647543868153884,0.581067181675045,1.3623941267629582,1.5213521300119666,0.6479637102052175,0.6683337337744784,0.44268541112997317,0.25346449388546644
130,Africa,GRDC,1160101,SWARTE WATER (27694408),-34.062222,19.072222,7106685,120124745,1.3325120414871374,0.933213341041257,1.0115470669389455,1.1087058634395521,0.43405269909453703,0.4486639370568394,0.34349871295555334,0.43409463965900197
131,Africa,GRDC,1160102,REENEN,-34.078889,20.144167,7106685,120182988,0.2980552216068659,1.5361344709151714,0.5882503961375883,0.6097954729798275,0.2958001678600014,0.4392156796098139,-0.07617917271253738,0.13156531747861988
132,Africa,GRDC,1160110,LEBANON FOREST RES. (27711209),-34.166111,19.1325,7106688,120078163,43.71465833235295,1.509637766564069,1.173449886007599,0.7770564867542984,0.37068408403635905,0.41300214766233856,-41.71964606401474,0.19129675290884618
133,Africa,GRDC,1160111,LEBANON FOREST RES. (27711208),-34.153611,19.135556,7106688,120094801,21.281281786565348,0.8175258929687607,1.5978696603474274,1.1617803932223183,0.577930460014041,0.571282909701876,-19.29448155862611,0.506777901061088
134,Africa,GRDC,1160113,FARM 562-WELGEMOED,-34.329444,18.988333,7106696,120099801,0.13040445705662726,0.6451592747837007,1.6714058845079782,1.5014653270228522,0.6450519354632939,0.705224164151651,-0.1545433723239995,0.31862476719632815
135,Africa,GRDC,1160115,HAGEDISBERG OUTSPAN (27711206),-34.405278,19.595833,7106706,120048223,0.23727399341380986,0.4879079604168747,5.11953410643946,1.7329823202407704,0.26367023749588836,0.5858195984888025,-3.2537623034662193,0.014582959460348488
136,Africa,GRDC,1160120,KYKOEDY (27711108),-34.291667,20.022778,7106702,120074842,1.3197886859260723,0.9121870755228593,1.616785473301856,0.9995851183239622,0.5170751747467185,0.5832123639815603,0.15388800353119259,0.5740619582968991
137,Africa,GRDC,1160200,BRUINTJIESHOOGTE (27713201),-30.823889,18.1175,7105467,120493944,13.775584872142305,5.394777965142346,0.36663772607034245,0.34386915188736716,0.14300518858122577,0.12915044097454143,-11.81995150935242,-3.528019435382377
138,Africa,GRDC,1160210,JONKERSHOEK (27711308),-33.986389,18.955556,7106666,0,1.522961564636305,0.9005382464553233,1.45912399166259,1.2021317069501156,0.4417976739111316,0.4809597734377634,0.10788258919687832,0.4341796891569486
139,Africa,GRDC,1160220,LEEUW (27712207),-32.780278,19.283056,7106272,120251128,0.2790987389483012,0.7230924662806226,1.281080911517029,1.3862172270962074,0.6918124835849556,0.7559096154560438,0.1671226667274186,0.465751327036512
140,Africa,GRDC,1160230,CLANWILLIAM (27712306),-32.211667,18.936667,7106053,120299347,0.1061122762181357,0.5737486065096123,1.4288966742973823,1.7322502058053788,0.6698027468116923,0.7231622007230393,-0.04499657701084403,0.10864160885588359
141,Africa,GRDC,1160235,MELKBOOM,-31.8625,18.68639,7105910,120354237,0.5131572014443527,1.2126904697542238,0.7614739731410314,0.8797229146695915,0.5617473130695155,0.622860213041934,0.3028802157473873,0.5506246200706739
142,Africa,GRDC,1160240,MOUNTAIN VIEW (27711421),-33.184722,19.155278,7106474,120187923,0.6704971866340472,0.36107074975745146,3.4301353469166727,2.585731380469832,0.4800562280082733,0.5447814571925923,-1.506884806763741,-0.7691801828920548
143,Africa,GRDC,1160245,DRI-DAS-BOSCH (27711428),-33.134444,19.060556,7106436,120247823,0.13044270260152568,1.6251145692536084,0.4956796324110696,0.6145373504205893,0.2610444600146438,0.22360543536007646,-0.24760739685969413,-0.06870865951217975
144,Africa,GRDC,1160250,MALMESBURY (27711312),-33.463889,18.740278,7106584,120219555,2.497856628156482,1.4191381272826111,0.6845399662162247,0.747662563192707,0.5703684027224056,0.5971837165903029,-0.5898656612451454,0.36627142250293754
145,Africa,GRDC,1160255,KLIPPHEUWEL (27711313),-33.705,18.699722,7106587,120217908,1.746695235252819,0.8943995624979659,0.8190221464614876,1.0982510654387307,0.638147263862419,0.6709640103268236,0.15073905042624058,0.6407376908710387
146,Africa,GRDC,1160256,ADDERLEY,-33.722778,18.616667,7106643,120217909,1.2665944043585753,0.9163504495266626,0.703272345408565,1.0930581766919845,0.6422323551061725,0.7267651803121141,0.46416647625637175,0.699476559593932
147,Africa,GRDC,1160263,DALJOSAFAT,-33.707778,18.991111,7106644,120209597,0.3610032318690128,0.942570395015014,1.0908499892859749,1.0853614246151606,0.6636661088209836,0.677902473734094,0.27220121146657106,0.6618705147910385
148,Africa,GRDC,1160265,NIEUWKLOOF (27711408),-33.313889,19.074444,7106477,120256155,0.3591594926545212,0.8098346454348889,1.4064474218263643,1.3819318219044234,0.6939091982361942,0.6810252713898923,0.18172887042953867,0.4672902702671946
149,Africa,GRDC,1160266,DRIEHEUVELS,-33.130833,18.862778,7106416,120297743,0.41315189410223135,0.8343836228056367,1.2061650388483471,1.183041439351389,0.8002826243054926,0.8243349255976521,0.34671464673280783,0.697029421759148
150,Africa,GRDC,1160270,WATERVALSBERGE (27711412),-33.352222,19.100278,7106479,120221213,0.6133954133154716,0.44686596849058435,2.6202589781794914,2.148851329904643,0.5862767769877172,0.652839480953674,-0.716353450800981,-0.32149046951615956
151,Africa,GRDC,1160271,WATERVALSBERGE (27711411),-33.379444,19.149444,7106479,120221213,0.5907030469199545,0.5049893091127691,2.061951906794049,1.8603772011564421,0.5797834038097551,0.6222870974926483,-0.21319736063751815,-0.0620506339544149
152,Africa,GRDC,1160275,KNOLVLEI BOS RES. (27711410),-33.388056,19.159167,7106554,120184607,301.50819381755036,2.9103659150238332,0.4142985984366324,0.4088543488989885,0.5358635345971177,0.45790708027162064,-299.509123023373,-1.0719111572941844
153,Africa,GRDC,1160276,KNOLVLEI BOS RES. (27711409),-33.390556,19.171389,7106479,120184607,20.76006297032768,1.8333625443126165,0.689304410054099,0.635873735882131,0.5248484054958117,0.48508100287895817,-18.768216646391927,-0.04509456035316406
154,Africa,GRDC,1160280,ZACHARIASHOEK (27711414),-33.8275,19.034722,7106644,0,102.21794871451714,1.2016437840025427,1.1808780555008,0.9060753520242147,0.6513956479920329,0.6583703468313092,-100.21871064106587,0.5923323963712603
155,Africa,GRDC,1160281,ZACHARIASHOEK (27711417),-33.826389,19.027778,7106644,0,175.7705233033445,1.4755020081025803,1.3263834458052826,0.7922663862734606,0.6113774123956016,0.552470938719004,-173.77126013562463,0.31477180832037943
156,Africa,GRDC,1160285,LOWER ZACHARIASHOEK (27711416),-33.821944,19.058889,7106644,0,44.613552860335204,1.01305669655799,1.071618842654587,1.0298598023016552,0.6426246628760628,0.6394813517943314,-42.61507582810628,0.638011352633064
157,Africa,GRDC,1160286,UPPER ZACHARIASHOEK (27711415),-33.815278,19.061111,7106644,0,71.11960225423019,0.9919183979361684,1.1670007744994726,1.0220391503694268,0.6269295565601308,0.6235701838331285,-69.12079357156402,0.6228389694833929
158,Africa,GRDC,1160287,ZACHARIASHOEK (27711418),-33.8225,19.046389,7106644,0,54.48243399749976,1.067442731977519,1.0097429375874958,0.962547411401942,0.6103295649999304,0.6132915971849077,-52.483854426075766,0.6056719547165247
159,Africa,GRDC,1160290,JONKERSHOEK (27711419),-33.9125,18.943889,7106644,120186305,7.788093185439747,0.9388349017822061,1.2786954859217572,1.1338179028503608,0.5702033538156652,0.5800271894830425,-5.807393438399018,0.5549993686108151
160,Africa,GRDC,1160295,LE MOUILLAGE (27711403),-33.890556,19.078889,7106644,120159680,5.1775448151848975,0.9189309762164934,1.4683402740298688,1.3128558730116777,0.6678130997872769,0.6813768750218339,-3.2168200615901936,0.5461589709314925
161,Africa,GRDC,1160300,CERES TOEKEN GEB.,-33.380556,19.301389,7106576,120276127,1.2975099881630636,1.2267441365461276,1.1478700687438887,1.0850021532745098,0.7373503704276708,0.7339048595207556,0.5764878063129819,0.6402154904584954
162,Africa,GRDC,1160301,CERES TOEKEN GEB.,-33.421667,19.266944,7106576,120262817,0.491279389326677,0.9994763282124901,1.0054759284188663,0.9959440061370683,0.676218240758929,0.6707704413301269,0.396956657334541,0.670745041616202
163,Africa,GRDC,1160303,WOLVENDRIFT,-33.897778,20.011667,7106668,120207936,0.44452676948578246,1.1657342445225207,0.8680136597407211,0.925984334726615,0.7699588507511684,0.7770751710493413,0.3844597217235395,0.7125254135127892
164,Africa,GRDC,1160304,LE CHASSEUR,-33.818056,19.693333,7106636,120214585,0.32928397278418464,0.936174028925749,1.0145695061900666,1.083498074942154,0.8145996445419225,0.8331818832458517,0.3039787708131524,0.8028351776304471
165,Africa,GRDC,1160305,SWELLEN DAM,-34.0675,20.405556,7106676,120161355,0.40343924211016335,1.0401817936614213,0.9963127180871325,1.0016017389783403,0.7844608995918966,0.8004876268055271,0.36568506425692937,0.7964752369678461
166,Africa,GRDC,1160310,CERES (27694913),-33.359444,19.298056,7106489,120276127,1.2937957850578468,0.839316161988199,1.366000213327079,1.325243639521797,0.5630443735335345,0.5847264106023314,0.3587493945625274,0.4485882891170965
167,Africa,GRDC,1160315,ROODE ELS BERG (27694805),-33.461667,19.617222,7106545,120242852,1.7639109714647936,0.5476144182869467,2.053699799340771,1.916970946839815,0.6141620130520635,0.6284515345641952,-0.3574660922568569,-0.08790472655369319
168,Africa,GRDC,1160317,DROSTERSKLOOF (27694907),-33.568333,19.144722,7106576,120214571,0.8166538126274979,0.9118701336661061,1.0869340146585174,1.0182747603565028,0.519755464771431,0.5201190081781908,0.4786477573218044,0.511751491023269
169,Africa,GRDC,1160320,ELANDS DRIFT - ASPOORT (27712202),-32.502778,19.535,7106160,120339302,0.526000871774949,1.0130405154872872,0.9589225804963885,1.1244171447993139,0.6467150194396986,0.7055061526649842,0.40740164914110955,0.6800370223254459
170,Africa,GRDC,1160324,LANGEVALLEY (27694705),-33.763889,19.850833,7106632,120119735,78.36621267751187,2.7298539719299626,0.4706775137900035,0.5234974972452366,0.05561510382763833,0.05540790236486089,-76.373786964246,-1.027733619154196
171,Africa,GRDC,1160325,HOEKSBERG (27694709),-34.010278,19.837778,7106560,120031561,17.439814043259684,3.5078533549015853,0.5218198137247474,0.4242981103679616,0.21552993363927656,0.19646511687293725,-15.46546492974069,-1.6956315445214427
172,Africa,GRDC,1160327,POESJENELS RIVER (27694712),-33.954167,19.587222,7106648,120111427,10.554418293267137,1.9697143537494195,0.6401498112566395,0.8061872309999745,0.4578044539811413,0.48692957406136045,-8.576553507978694,-0.11406937812147433
173,Africa,GRDC,1160328,WAGGENSBOOMS KLOOF (27694410),-33.983333,19.329167,7106685,120096453,41.78101924951868,2.2054715477705367,0.5566132958000893,0.5340275925720831,0.28286613955690815,0.28778697446783275,-39.789734048812676,-0.4756487829785736
174,Africa,GRDC,1160330,TWEEKUILEN (27711501),-32.601667,18.749444,7106191,120317677,0.5076611942410182,0.5495716495183415,2.020125300327712,1.7400385196960615,0.3303061963202369,0.38500590154804615,-0.3158810427663872,-0.06243138634092382
175,Africa,GRDC,1160331,TWIST NIET (27694406),-33.964722,19.291389,7106685,120116419,2.9850768363813573,0.8117974703305971,1.803846402060403,1.522885093753212,0.46734638126293526,0.5551119159122379,-1.2069025719312947,0.28813314390502254
176,Africa,GRDC,1160332,PURGATORY UITSPAN (27694407),-33.938611,19.170556,7106685,120119755,2.055468050212061,0.8303673820793249,1.1701831772198499,1.2996855464868815,0.5477298640522383,0.5657114708189176,-0.1608287533901369,0.4457498954316468
177,Africa,GRDC,1160340,NEW GLEN HEATLIE (27694801),-33.562222,19.51,7106590,120244522,0.4609898697230614,0.6573608426959519,1.4716354054704681,1.5080100733673694,0.6344123028673355,0.6508796634159156,0.19586926403151328,0.29476185853476944
178,Africa,GRDC,1160341,GOLD MINE,-33.871667,20.002222,7106642,120217917,0.9198343962719441,0.37434728664672196,3.9244034572085686,2.641002928316712,0.2811963980124695,0.33205812224266085,-2.012514020346588,-0.8789567000152885
179,Africa,GRDC,1160345,KEISIESDOORNS (27694605),-33.708889,20.058333,7106620,120172980,5.359920442206328,1.98246208387463,0.4319920479367308,0.5019593529875358,0.36305150770428135,0.49453875799574776,-3.4426616659175746,-0.2119271015603026
180,Africa,GRDC,1160346,HARMONIE (27694604),-33.696389,19.928056,7106620,120161331,12.90962116604477,1.82837903830494,0.5016126912318776,0.5364755664969821,0.27522876148833764,0.31078132708356804,-10.94205843129301,-0.1730682463752904
181,Africa,GRDC,1160347,DWARS IN DIE WEG (27694708),-33.596389,19.761944,7106602,120211245,31.442426834782566,2.2911728404777185,0.507335491464776,0.6162575411916739,0.23312838271709338,0.18614314333209758,-29.45606937847453,-0.5737689035639633
182,Africa,GRDC,1160348,DIE KOO (27694707),-33.638611,19.813611,7106602,120181296,64.45176768267436,3.1142648081121216,0.43691768732550224,0.4365044224451765,0.23611194847698863,0.1816524907868451,-62.4588639096398,-1.3360940885547836
183,Africa,GRDC,1160350,ZANDFONTEIN,-33.571944,20.701944,7106560,120262827,1.128553052486656,1.2198541674189327,0.7672405947926016,0.805614642779076,0.21720069659996202,0.2498567785782013,0.1732729728503346,0.1944961982222232
184,Africa,GRDC,1160351,FARM 162 (27692705),-33.945278,22.614167,7106655,120174656,0.2699905588176429,0.555875894701842,2.5094167653704442,1.7027230544935577,0.44831184302831406,0.5214080089672907,-0.7651097921487964,0.0407731206308396
185,Africa,GRDC,1160352,OKKERSKRAAL,-33.693889,21.143056,7106604,120247858,3.2714623858925864,2.4385744906490783,0.13550313582553122,0.19362713123443198,0.21149886504211088,0.26541809629522073,-1.5551184392356863,-0.8053654316724923
186,Africa,GRDC,1160353,BUFFELSFONTEIN,-33.749167,21.444444,7106615,120239542,1.9470498470644941,2.3664226776278583,0.2979896402291877,0.4483370350797016,0.4463359885210865,0.5751344260810172,-0.3024076917990579,-0.533608071412591
187,Africa,GRDC,1160360,LOT B (27693215),-33.354167,19.719167,7106486,120174621,1.866824618593288,0.605061777905015,1.4895788830183072,1.6875424141173703,0.2743462465394723,0.29729205293863653,-0.23192766508760765,-0.05947592202233887
188,Africa,GRDC,1160361,VERLORENVALLEY (27693216),-33.288056,19.727222,7106486,120214552,2.7823196782757815,1.403948126335842,0.7213495725548326,0.7539362495282267,0.3278420790327539,0.33075237813914193,-0.9251248704963193,0.18047950761870113
189,Africa,GRDC,1160365,ZOAR (27693405),-33.489444,21.489167,7106538,120246182,1.0824504701608713,0.8901047232931104,1.1375011842869507,1.0119700576872916,0.453656033826072,0.5624806428393799,0.430617540589174,0.5487312973252376
190,Africa,GRDC,1160367,OPZOEK (27693406),-33.489444,21.489444,7106538,0,7.773111620925086,0.8941793628019779,1.1692576535767327,1.067983236749689,0.3473390639648801,0.4047046410641997,-5.806589122330727,0.39156241724687724
191,Africa,GRDC,1160368,OPZOEK (27693407),-33.491944,21.514167,7106615,120064803,89.3937612242214,1.2527172224444585,1.1131412870620467,0.8973143029612002,0.31755220188174105,0.4154143148159673,-87.39646802510076,0.35490251107412374
192,Africa,GRDC,1160370,WEYERS RIVER (27693103),-34.030833,21.586389,7106671,120173000,18.80063857149289,1.217626501914436,0.9612014302336563,0.8359004048223919,0.16662378655068297,0.17642736130486003,-16.820178304244866,0.1324967650318274
193,Africa,GRDC,1160373,ZEEKOEDRIFT,-33.980278,21.653333,7106671,120184645,3.153383799479056,3.0361240664280036,0.23263378537054777,0.28048870871898285,0.2703815913203476,0.331150315930341,-1.3996365802966535,-1.2607205957500076
194,Africa,GRDC,1160375,LANGFONTEIN (27693104),-33.9875,21.759722,7106670,120176326,0.13812284652939946,0.6438978392247238,1.4890317782934177,1.6431016607929694,0.294033139189444,0.35317573794128315,-0.21670601067723783,0.02083192402361289
195,Africa,GRDC,1160376,HUIS RIVER,-33.502222,21.622778,7106550,120264487,1.9920372078939832,1.0478958406196945,0.6875456653886329,0.8706935922177068,0.48603596905467744,0.5569868431318189,-0.16013988732785434,0.5360228283627098
196,Africa,GRDC,1160378,SPEK BOOM BERG,-33.31,21.634167,7106537,120307738,2.138610801307641,2.0625071422600025,0.26388771321951804,0.2828718097778539,0.2217318214386455,0.23377765352367746,-0.5633288884188214,-0.49341586733384113
197,Africa,GRDC,1160380,PARDEKLOOF (27693304),-33.476944,23.029444,7106548,120312741,2.1321106762164055,0.8881921295029659,0.6807909621445436,0.734197826613126,0.20817161398989914,0.2689770483337447,-0.4179425890857269,0.21415882575095901
198,Africa,GRDC,1160385,WILGEHOUTE RIVER (27693316),-33.545278,22.973889,7106548,120194602,34.76295187920645,1.1713925961489613,0.8063537465172296,0.7665279373889757,0.4218240817297306,0.4669734779980259,-32.768457262089505,0.39336839911520605
199,Africa,GRDC,1160390,DE RUST (27693312),-33.475556,22.547778,7106547,120291109,1.0889843180133525,1.140583003550721,1.1606423264815307,0.9808643988753478,0.43419916775099515,0.5316758454063378,0.4051430863784412,0.5106562906365177
200,Africa,GRDC,1160391,WARM WATER,-33.66,21.773056,7106582,120296113,7.12288716685006,2.954750054397202,0.4816909901261418,0.3699680965216924,0.22283056468773407,0.564299435388252,-5.193737467706971,-1.0994815923387753
201,Africa,GRDC,1160393,PAARDENDRIFT (27693317),-33.679167,22.14,7106613,120237875,0.6111262660977854,0.911036363423245,1.371726311652952,0.9728512664357297,0.4833405594534008,0.5993658958295855,0.25411783155777024,0.5887102386497627
202,Africa,GRDC,1160395,GROENEFONTEIN (27693313),-33.368056,22.179167,7106565,120202910,0.7114844897964744,0.27764170434067265,3.684355403470644,3.3967537929663627,0.45156372422840485,0.4390119403312623,-1.754956892648642,-1.565333868036944
203,Africa,GRDC,1160396,KOETZERS KRAAL (27693318),-33.4675,22.000556,7106562,120207906,0.6647802811936889,0.45747536716337567,2.423755311294613,1.9288472291133218,0.4822839636738914,0.5211694624772301,-0.5516060519943262,-0.17744164863077394
204,Africa,GRDC,1160398,VOGELFONTEIN (27693320),-33.460833,21.960278,7106562,120191267,2.716881573469646,1.3857521116805518,0.7140681340982087,0.7627014893177415,0.435260758271348,0.5149869239742599,-0.8298551255238595,0.3364090425917686
205,Africa,GRDC,1160400,KNOETZE KAMA (27692703),-34.006667,22.350278,7106664,120168007,0.09174591606128593,0.6492553152096282,1.678965195028928,1.358261759832359,0.491884655805184,0.5340292357641045,-0.24261837265438801,0.3155278854551775
206,Africa,GRDC,1160403,WOLVEDANS,-34.028611,22.221944,7106663,120159689,0.1158848030245347,0.765676955507027,2.08687132703656,1.3100771145089276,0.3612996179855342,0.39412420390113384,-0.5397685348917229,0.28018017086143476
207,Africa,GRDC,1160410,PINE GROVE FOREST (27692902),-33.935278,22.130556,7106674,120113093,1.3361072309963733,0.5158508329789254,1.8102404489056834,1.3556940246395215,0.3027952912068688,0.41104317616804265,-0.12051419523995666,0.15869815438827894
208,Africa,GRDC,1160417,BRANDWACHT,-34.031667,22.052778,7106673,120163016,0.17503070569167165,0.31938408082745695,3.190829774860268,2.4112572741741345,0.3967336231131284,0.4682307256624255,-1.4174862482438422,-0.6545886753117842
209,Africa,GRDC,1160419,BANFF,-34.039444,22.132222,7106674,120179657,0.1183741373057306,0.2584605079644127,3.77580828486103,2.843311666838433,0.3630052671183534,0.42949151023550175,-1.981298053833851,-1.067161981133662
210,Africa,GRDC,1160425,WOODVILLE FOREST RES. (27692603),-33.9125,22.707778,7099917,120192961,7.027750025728853,1.1823926956513395,0.9612688411141054,0.9248646921764949,-0.011246511747834325,0.002728699567050411,-5.112110108862978,-0.01659355525004247
211,Africa,GRDC,1160427,KARATARA FOREST RES. (27692602),-33.880556,22.837778,7106660,120148031,1.0277891945823874,0.5035795387892668,2.9796476475522975,1.7416207890015392,0.3669894424113349,0.4088948215863795,-1.0785762949224633,-0.07043916265023697
212,Africa,GRDC,1160430,MILWOOD FOREST RES. (27692502),-33.890833,23.029167,7106659,120239551,0.4772320651556619,0.5346912993490925,2.571237861439551,1.760877457610107,0.49946473690626786,0.6177148094854822,-0.7299162640205621,0.029645085915788738
213,Africa,GRDC,1160435,GOUNA COMMONAGE CON. (27692501),-33.991111,23.041944,7106659,120179654,1.3816244317435737,0.415929436750871,2.7284963863696063,1.0274510146589928,0.0920902795386157,0.3669477891933098,-0.9893810658354678,0.13823026122565596
214,Africa,GRDC,1160441,MKAMA (27692401),-33.803333,23.135278,7106651,120161337,1.9939161454230858,1.2605164669711837,0.832750084659927,0.777204158925763,0.5270773891898175,0.5492308234580514,-0.11332728078021415,0.4336964887240845
215,Africa,GRDC,1160443,NEWLANDS,-33.945833,23.3675,7106658,120212930,0.31091697104055827,0.37422071843208055,2.2357575334704816,2.071950741387504,0.6135178060581898,0.6887930219810869,-0.46673125983018515,-0.27965928448495436
216,Africa,GRDC,1160450,WELGELEGEN (27691302),-33.737778,23.304167,7106624,120167990,3.64083487757551,1.4036600588078136,0.7281818062740443,0.8116775860875385,0.3643353717839189,0.36932272404090133,-1.7298284745794539,0.22788562954071812
217,Africa,GRDC,1160453,STUURMANSKRAAL,-33.791944,24.032778,7106638,120219578,0.6763710507180005,0.6081696142356475,1.2001229104256124,1.5104022861381712,0.6014882862664764,0.6803295318346455,0.44900411791609685,0.28150800065667414
218,Africa,GRDC,1160457,DIEPKLOOF (27691301),-33.865556,23.835556,7106626,120141374,0.8896460497165722,0.686962789026543,1.551532251268042,1.3785814017023998,0.36552175297179523,0.4259487693236602,0.15210350603158196,0.24445318569263053
219,Africa,GRDC,1160459,GEELHOUTBOOM,-34.096639,24.439111,7106682,120143052,0.07627373188422189,0.29995097344864957,3.2666858055159813,2.963488758552352,0.5909371939074911,0.6881480781788302,-1.481625906268512,-1.1077495974808076
220,Africa,GRDC,1160460,GROOTRIVIERSPOORT (27691206),-33.730833,24.617778,7106610,120294451,1.6096960524008168,3.6570429034970227,0.36206798804177265,0.2923390261547886,0.34630003728280556,0.39919470443941335,-0.09818494319065985,-1.8145386918820439
221,Africa,GRDC,1160470,CAMPHERSPOORT (27691501),-33.203611,24.234167,7106462,120336018,0.8673574378316291,6.9032317957175096,0.8832357674369297,0.6812244004311167,0.1456718836803567,0.13226651135796177,0.12758698677810698,-4.97517572328727
222,Africa,GRDC,1160481,KLIPKRAAL (27691902),-32.068889,23.0075,7106070,120327626,0.4575595221705332,3.832070724775426,0.29417605680583175,0.33833772299020903,0.13183990273653626,0.11666957032041159,-0.24343518739600234,-2.0395220359368538
223,Africa,GRDC,1160485,UITENHAGE,-33.771917,25.386389,7106640,120252856,0.3671090786065346,1.3579416087458072,0.7576874430275476,0.8006149491048711,0.5578660763049123,0.5927546802150623,0.19083456565989465,0.42231033912772353
224,Africa,GRDC,1160487,WINTCANTON (27683204),-33.797222,25.308889,7106625,120209594,0.20584534551935127,1.0377246483215383,0.5774287359883946,0.8422407830690181,0.636278415139558,0.5773255171234721,0.02966939670283708,0.5472695745892479
225,Africa,GRDC,1160490,RIET VLEY (27682302),-33.000278,25.164167,7106402,120352646,1.8952443358995215,2.403195377917573,0.3059793387858047,0.5759364768321699,0.4372724391578596,0.47115346716256956,-0.2648278170896261,-0.558353552819425
226,Africa,GRDC,1160493,DE DRAAY,-33.099306,25.0115,7106396,120279435,7.863769357305955,2.5072708982494487,0.38436029014764767,0.4320128850483872,0.26154857877825843,0.2797155570929176,-5.93077575341633,-0.7644502266016808
227,Africa,GRDC,1160495,VOLKERS RIVER (27682209),-33.1075,25.228333,7106426,120282765,0.036568648016260204,0.1764824137993244,8.833558703290171,3.9379497744678797,0.12466571861963877,0.11633129433763918,-6.940972990259952,-2.1765705522535845
228,Africa,GRDC,1160500,DONKER HOEK ALICEDALE,-33.329167,26.0775,7106585,120291099,1.7734165182527477,1.7478811581833666,0.7030958257585547,0.610083112480112,0.3327948596610078,0.47820847478429573,-0.06371419971859549,0.0082198823701789
229,Africa,GRDC,1160505,SMITHFIELD,-33.552306,26.601806,7106583,120269482,0.46372000980519335,1.4604919722157763,0.7540150360962974,0.9226403104443455,0.31055755009246605,0.4130585997798981,0.09256640899482327,0.24997494352811367
230,Africa,GRDC,1160510,BRANDT LEGTE PIGGOT'S BRIDGE,-33.098056,26.444722,7106408,120404236,1.3622653821371977,2.3345243033251255,0.729848561659496,0.8500069564213172,0.19422115379263086,0.16003948038102803,0.0761506855943811,-0.5839781260503509
231,Africa,GRDC,1160511,KATKOP (27673901),-31.903056,25.481667,7105982,120404160,0.17435964592140157,0.2894211256829362,12.710108479502003,8.839134905224274,0.06591238984817732,0.06082800727780083,-10.77628304090161,-6.927105551892511
232,Africa,GRDC,1160512,ZOUTPANSDRIFT (27673802),-31.904167,25.430556,7105933,120377537,3.6571274319048723,2.390544401657432,0.4113402565370929,0.496535805776008,0.2317021197214091,0.3141487828892308,-1.8279193969764722,-0.6301784625797147
233,Africa,GRDC,1160520,JAN BLAAUWS KOP (27673912),-31.57,25.543889,7105806,120372522,0.01742442312670694,0.1589636473135426,16.424161264089044,4.522923758524748,0.032472989060797555,0.05366655178858702,-14.485680933746174,-2.7435118471993625
234,Africa,GRDC,1160523,ZEEVEN FONTEIN,-31.7775,25.3175,7105872,120355896,19.487225425024604,4.382019292921291,0.17891541985748205,0.2099009945677883,0.08261997710296405,0.08399321391549944,-17.52817502912347,-2.591849018016996
235,Africa,GRDC,1160525,COUTZENBURG (27673704),-32.385556,25.520556,7106175,120330953,2.1909786805304345,0.8866231369922382,1.3634311431421837,1.1719339804306355,0.43118870513305546,0.5202098936387967,-0.368962637346929,0.47787534739844184
236,Africa,GRDC,1160527,DOORN KRAAL,-32.785,25.614833,7106382,120362614,2.5218266981692476,2.2178866648684585,0.35517168002615374,0.4952456688973101,0.29716003809060604,0.27671414443918213,-0.7960356548681893,-0.5037178232918853
237,Africa,GRDC,1160528,RIETFONTYN,-32.085833,25.575833,7106006,120359243,0.2832104104367168,0.3987613941923879,5.3002265436888445,2.9392150323883794,0.24883387433031065,0.22239163597095019,-3.4237977113681426,-1.1741015548410982
238,Africa,GRDC,1160529,BRIDGE FARM,-32.314194,25.741111,7106080,120374234,3.098968341753375,1.5527446108013139,0.7499076522898663,0.6936512193607001,0.06690052408141929,0.06440639172545623,-1.3106035821892101,-0.12903125732340204
239,Africa,GRDC,1160530,BOTMANSGAT (27673403),-32.605833,25.884444,7106214,120330989,2.41255757425019,2.180167450628099,0.37817261972169947,0.5098458989841631,0.3711589737285681,0.4909120809560572,-0.6665620983802143,-0.37557870134033444
240,Africa,GRDC,1160533,SOUT VLEIJ,-33.027639,25.893306,7106386,120374280,1.173117285044032,0.7903643447299111,1.7141140978208786,1.3933000211854059,0.2999824572721178,0.31476960099449985,-0.014866049887533928,0.18258167726298347
241,Africa,GRDC,1160535,ROBERTS KRAAL (27673603),-31.968333,26.001111,7106014,120377540,1.7773681304650204,2.7257320930368736,1.2301243042508998,0.7390870324466516,0.35513140945260496,0.3705926029085675,-0.03591211246139281,-0.8553653292783971
242,Africa,GRDC,1160537,FORT BEAUFORT,-32.761444,26.628861,7106347,120337654,2.1045345084475304,1.3513264891634749,0.608453149561444,0.8262194868173501,0.2969147944123294,0.3954046937072758,-0.3666141455275653,0.2794686313968341
243,Africa,GRDC,1160540,KAP RIVER MOUNTAINS (27673113),-33.355278,26.861389,7106530,120226205,0.722550835115548,0.38838048724424457,1.5551534962871725,2.1119794619014916,0.28551478757052917,0.5972866830737115,0.05360549329820308,-0.33144837215120426
244,Africa,GRDC,1160545,BATHURST (27681101),-33.506667,26.744167,7106561,120276134,0.2688651530345571,1.4759727678599015,0.5952242550529224,0.5834414469519675,0.2583944814622607,0.29578836245987894,-0.11730940802907064,0.05343508711307865
245,Africa,GRDC,1160550,WHITTLESEA,-32.180833,26.820556,7106073,120314322,1.9904865532915774,1.9336076055861553,0.8617284697200223,0.8344975252537556,0.19290764160734666,0.21124738660722556,-0.28513839850547273,-0.2333470377348692
246,Africa,GRDC,1160580,MATOLEMA'S LOCATION OUTSPAN,-33.237778,26.994722,7106528,120292758,1.322194514025567,1.464010588357757,0.7186941493807191,0.719114010270081,0.2915751520521285,0.3473276726800366,0.17246870050083707,0.15136348641840458
247,Africa,GRDC,1160600,FARM 7,-33.185278,27.390556,7106467,120346002,0.6631756806335556,1.122691305667783,0.9976537219108779,0.8967119808919862,0.2690130366115098,0.3946199855930893,0.19514096403067827,0.37373605147586997
248,Africa,GRDC,1160601,KAMAS LOC. (27672413),-33.011667,26.954167,7106375,120284423,0.5780424163975552,1.184872593890972,1.2729757749336812,0.8836523993997727,0.21664394137645154,0.27741310205285385,0.06929559437892518,0.2451182442115284
249,Africa,GRDC,1160602,ZANYOKWE (27672405),-32.751667,27.090278,7106317,120329334,1.4194633932048544,0.8132561774411793,1.8536638666926089,1.4543222730060115,0.33569684626412666,0.47243552333210864,-0.16016818418664358,0.27916280613782485
250,Africa,GRDC,1160610,MSENGE RIDGE (27672206),-32.858333,27.370556,7106328,120292732,2.473378689723111,0.7908236030119635,1.4702139979103233,1.2571752296832528,0.3127774656430182,0.3992931967572075,-0.6924008918956033,0.3138932100017481
251,Africa,GRDC,1160611,SHESHEGU (27672209),-32.915278,27.386111,7106328,120329345,7.424696984435833,1.2251027906663758,1.0011322407655743,0.8668318160066467,0.26998532846171097,0.4370276134886013,-5.466038512447106,0.37924003063324263
252,Africa,GRDC,1160612,JEFTAS LOC 29 (27672212),-32.786944,27.262778,7106328,120227834,6.790885824274293,0.7255851194381225,1.72920008187996,1.527834517524621,0.31774522254133725,0.3556285747292138,-4.876356266476691,0.12300094739518475
253,Africa,GRDC,1160615,BRAUNSCHWEIG (27672208),-32.767778,27.372778,7106328,120219509,5.335770700326832,1.4072015348436644,1.0754845980285268,0.921053053157431,0.2606597617748489,0.30833632519698,-3.3990032368948064,0.1934986984283179
254,Africa,GRDC,1160617,MHLABATI,-32.991639,27.640028,7106356,120282757,0.6363125404738842,0.5556262815255829,2.002402629156298,1.6461193977435202,0.3265142509760805,0.42868092440587274,-0.2612147530434019,0.029771282661166576
255,Africa,GRDC,1160620,GOUMAHASHE LOC. (27672401),-32.759444,26.854722,7106316,120297718,0.3195942025662867,0.3264989662184146,0.8828528322047692,1.3423657615932554,0.1725693743378075,0.13733532479647978,-0.07764416594141998,-0.1467381126744629
256,Africa,GRDC,1160621,KWA KHAYALETU (27672414),-32.64,26.935833,7106316,120204526,0.8972734400065093,0.40510264239789445,2.642259370934189,2.1901276040025763,0.2654747121617909,0.39661558708426015,-0.8019700291689253,-0.46095151515734867
257,Africa,GRDC,1160625,BLINKWATER (27673117),-32.701944,26.575833,7106248,120281075,1.9732368435643872,1.4093659691943377,0.8708215994245112,0.927036691893017,0.34660686823245523,0.38365005924132134,-0.17932166837017505,0.2565005779843802
258,Africa,GRDC,1160630,ADELAIDE (27673102),-32.713333,26.295833,7106250,120322676,2.1088646031830236,3.711150478233105,0.4978925341410238,0.4577289703489425,0.39296317862856467,0.4566973611597707,-0.36021554099499364,-1.817724710221559
259,Africa,GRDC,1160631,SCHURFTEKOP (27673116),-32.499167,26.365,7106222,120314342,3.2779020069423863,1.745547802931674,0.44057285143011254,0.8473436739982069,0.46160177317650875,0.5874308269612586,-1.4065886516884984,0.1343448707097712
260,Africa,GRDC,1160635,GREY KIRK (27673119),-32.553611,26.670833,7106249,120257769,5.370654023363232,1.068504021788197,1.2594151501065043,1.2553702650906922,0.4160446357791971,0.43240849767628914,-3.4171163307579118,0.37384755306416384
261,Africa,GRDC,1160640,KING WILLIAMS TOWN (27672205),-32.875278,27.382778,7106328,120299389,0.7794739310195701,1.1009087039522352,1.2875684105483551,1.2329607280958854,0.3265451440748925,0.3838796932674516,0.235232858437043,0.3336236050575512
262,Africa,GRDC,1160641,PIRIE MAIN FOR. RES. (27672201),-32.731667,27.293333,7106328,120186229,2.791204503498036,0.3285792038825814,3.221713289579717,2.5860014861866425,0.33700051241498274,0.40725431275420315,-1.9298450189361156,-0.821415397264907
263,Africa,GRDC,1160650,GUNDRIFT (27663201),-30.734167,29.828611,7105544,120410740,0.7153577629993386,0.8872921968267838,2.306181458798258,1.4064680022759886,0.48325297373383774,0.4646692076247254,-0.4332336500194267,0.31845884714457273
264,Africa,GRDC,1160660,OUTSPAN (27672101),-32.801667,27.855278,7106325,120311033,0.8304560492921693,1.185496033282894,0.9987086305407264,0.8864466517819226,0.27781187575065264,0.3232696913940298,0.25817623004955526,0.2891786076368016
265,Africa,GRDC,1160670,HAMMERHEAD (27711202),-32.575556,27.6225,7106198,120324332,1.4916667308553588,1.6563141306953533,0.8610228634952135,0.766481167334215,0.4692130679672609,0.5393555854444673,0.2632601640213871,0.16485177362267145
266,Africa,GRDC,1160671,STUTTERHEIM (27711201),-32.579167,27.365833,7106198,120251116,1.8255626928802842,0.9051388272243408,1.4904135729354346,1.2688812506855933,0.36483776742092855,0.3990834974947385,-0.15129939376770096,0.3348711312431415
267,Africa,GRDC,1160675,FORKROAD (27711203),-32.516111,27.523611,7106174,120340967,1.1207703908561215,0.7211469572175093,1.6726856515184398,1.4501044391692823,0.3589903402480977,0.42383811452327813,0.06299153847919936,0.21749406142506567
268,Africa,GRDC,1160680,FP 1609030 THE BANKS (27663104),-29.776944,29.470556,7105023,120475575,1.6765123916482079,1.126769345700583,0.7926796164665618,0.967312355071666,0.7302268184589586,0.6958588143624657,0.24274949523898914,0.6688794631235933
269,Africa,GRDC,1160682,BEZWENI,-30.247333,29.929083,7105270,120498901,1.8417160997871092,1.3175260021325725,0.7939103929725807,0.9467529273384138,0.656115302511333,0.6500159346925168,0.06768266993881811,0.524450992276847
270,Africa,GRDC,1160684,AREA 8 SPRINGS B,-32.51639,28.01806,7106167,120385895,1.1402669400621783,0.9699045357186001,1.0185083200235705,0.9869778480186044,0.41722694067493554,0.46187453159615716,0.4002985650679193,0.46087632851321136
271,Africa,GRDC,1160685,COXHILL (27663103),-29.747222,29.538889,7105018,120365748,2.4383957551963014,1.2766948513432215,0.7534367336520345,0.797615584486386,0.6925554804944518,0.6461375702607665,-0.49140803452741033,0.5073154035454441
272,Africa,GRDC,1160687,DRONKVLEI (27663105),-29.988056,29.851667,7105105,120335812,0.8466524355668852,0.9141550439341287,2.326684349199541,1.484674786925334,0.6281292025445658,0.5556835169550335,-0.3863241785126301,0.3369041225670927
273,Africa,GRDC,1160688,NOOITGEDACHT (27663102),-30.403611,29.894444,7105273,120467296,0.97170623642427,0.5878000354823556,1.6571167418368402,1.3909225401454863,0.48503641493375244,0.5092004391941489,0.16466147975576628,0.2492580656248361
274,Africa,GRDC,1160690,CATHCARTS GIFT (27711504),-32.050278,26.789722,7106008,120354249,1.829882260560551,2.5721291739420717,0.823949127743761,0.6921062257943226,0.24330150364881606,0.30192743857630067,-0.13678981803824009,-0.7474821935479179
275,Africa,GRDC,1160693,HOTFIRE,-32.173778,27.372306,7106045,120339282,1.4667930839398666,1.1471169881526175,0.7599858541902469,0.8761053530610462,0.21942786463714573,0.39422459874482996,0.0593643468867433,0.3644237822974433
276,Africa,GRDC,1160695,WYK MADUMA,-32.044306,27.822389,7106003,120370889,1.7883375659892315,1.3072172103052275,0.8955015085154359,0.7748839817535046,0.39922102722125413,0.4230817948086078,0.0033398639428481314,0.3087010404606845
277,Africa,GRDC,1160700,LOT93.1821 CAMDEN (27662505),-29.743611,29.904722,7104933,120460597,1.1859134961671118,1.091382726444647,0.8318198495350553,0.9013612890147745,0.6426909645826848,0.6361096728983172,0.5635161654100551,0.6120611283263127
278,Africa,GRDC,1160701,DELOS ESTATE (27662506),-30.168889,30.696944,7105169,120502224,1.0885126197543393,1.0453191754354472,1.0355745872210576,1.0178368725250773,0.6728058498158386,0.6850554277622866,0.659183264750012,0.6813119624685906
279,Africa,GRDC,1160703,SHOZI,-30.135611,30.673722,7105169,120463951,1.0748151302797477,0.8711740781766677,1.0574621112506888,1.0626167747084656,0.7247332219178114,0.7524304952583113,0.709017187682999,0.7139796540688633
280,Africa,GRDC,1160704,UMLAAS,-29.803946,30.515871,7105029,120463929,1.8943562769746982,0.7386615605225298,1.4461287273362806,1.4809946051138438,0.5578312995055748,0.6162118104466682,-0.0928939341105619,0.33145907788844664
281,Africa,GRDC,1160705,BEAULIEU ESTATE (27661907),-29.862222,30.244167,7105097,120385725,2.8394460082323016,0.733491620448165,3.268510027546388,2.0873684749358756,0.6150809091269506,0.41369987703601774,-1.9458211196199264,-0.26378192376821774
282,Africa,GRDC,1160708,HIGHLANDS (27661901),-29.847222,30.235278,7105097,0,12.950002424421895,0.5219327244901817,3.6505445003589156,2.077170551806681,0.5895307838661569,0.45879551848228034,-11.247302930419643,-0.29682188769612994
283,Africa,GRDC,1160709,NOOITGEDACHT (27662002),-29.748889,30.316944,7105029,120352438,3.629636107411552,0.30817456418612044,3.5398001213425156,2.6592807630727693,0.3818635818649795,0.4873622715406012,-2.7077841556917566,-0.8693936249443102
284,Africa,GRDC,1160710,WELTEVREDEN (27662407),-29.4425,30.148333,7104800,120442273,1.1460081039803944,0.7477276034032028,1.169191451714957,1.3091062660288935,0.543422279429016,0.6735146580905029,0.49166219038599945,0.4844607442058577
285,Africa,GRDC,1160715,SHAFTON (27662406),-29.381667,30.2775,7104780,120399005,0.561060507812559,0.6871392932334683,2.0564661933186494,2.080615130361363,0.35644520396450174,0.395295819994746,-0.31261246029711987,-0.2772149494584635
286,Africa,GRDC,1160717,GROOTHOEK (27662412),-29.423056,30.488056,7104778,120415647,0.8987013360230406,0.5235878877207957,1.9905840631019298,1.8426784112143597,0.5816129443316026,0.5935271821272624,-0.08007681844668602,-0.04990264173517267
287,Africa,GRDC,1160720,PETRUS STROOM 27662413),-29.5125,30.094167,7104817,120463911,1.0121407882892655,0.8445503058017767,1.186493003787665,1.189354665889319,0.6588696163639723,0.6979879190737902,0.6110308780356797,0.6111155776509475
288,Africa,GRDC,1160721,HOWICK (27662401),-29.487222,30.2375,7104809,120442277,1.3832428291266867,1.0152857045449455,0.7397631126443187,1.0050684549042497,0.7170773102145688,0.7665536502273843,0.45718921159116255,0.7659988456850902
289,Africa,GRDC,1160723,HAMSTEAD PARK,-29.607722,30.45025,7104886,120404012,0.38958472108754755,0.40316170750777935,1.7128974219910544,1.6798227321175956,0.2618813535840212,0.24271807808709325,-0.19400531121022047,-0.1797672667712762
290,Africa,GRDC,1160725,INANDA LOC.,-29.642444,30.688611,7104894,120448942,1.6356239797338084,0.7101442544087384,1.2483740033695372,1.3614188494327129,0.49931016268025125,0.5173147646141896,0.15359713944379172,0.3309521882279358
291,Africa,GRDC,1160730,WELTEVREDE (27711506),-31.922778,26.785556,7105951,120329279,4.7320677607978485,2.7889582106221793,1.0368995179325078,0.6879047191177649,0.2584750989103115,0.2696149940276045,-2.8052004578663645,-0.9573546435561358
292,Africa,GRDC,1160731,DOORNHOEK (27711502),-31.744167,26.583889,7105894,120359220,5.008671578607607,2.983643001749917,1.1037603247927423,0.7306225184346361,0.2717967716631386,0.34248621729332496,-3.0755973760784716,-1.107066244904312
293,Africa,GRDC,1160740,BASHEE BRIDGE (27663804),-31.920278,28.447778,7105936,120412480,1.8174110831215202,2.013618866500635,0.7631830190051969,0.5780603576830914,0.2959677816041014,0.2805295255250183,-0.10449288175019045,-0.31266676347266764
294,Africa,GRDC,1160743,GXWALI BOMVU,-31.799667,28.333028,7105884,120382520,0.6063402347810245,0.7254032461852457,1.4150240718077511,1.1211466488094874,0.43412350387022375,0.4908317719692455,0.19537014733216806,0.4089567087265531
295,Africa,GRDC,1160745,CACA 45,-31.670278,28.111639,7105846,120387505,1.0262687974289182,1.2823884874077924,0.925797370678066,0.7349503448219772,0.40575952112762553,0.3568984936747477,0.40056874735536285,0.24928425821203248
296,Africa,GRDC,1160750,DOORNKLOOF,-29.071389,30.245556,7104664,120488843,2.0804248180866427,1.2705888382150585,0.7152788115061569,0.8449011318529849,0.5862154383972501,0.5704127483056721,-0.19147035470282758,0.4691335524961612
297,Africa,GRDC,1160752,THE BEND (27661505),-29.36,29.880833,7104754,120403997,1.8292729489529285,0.9952038091884384,0.9609270432148452,1.015299717698859,0.6410243585459605,0.6608794706144567,0.09552013235541834,0.6605006358493484
298,Africa,GRDC,1160755,DARTINGTON (27661506),-29.266111,29.867778,7104709,120369048,1.7614356819983616,0.8785704369488305,0.9756702368138908,1.049445016413552,0.52739146539553,0.5780534808247103,0.10348727718007988,0.5581529523974642
299,Africa,GRDC,1160756,BROADMOOR (27661507),-29.238333,29.787778,7104674,120437269,3.0916202242623805,0.9593361712525,0.9627152612142161,1.0032674039224114,0.5322937509905875,0.5902008373904466,-1.1435984814447386,0.5881753084475272
300,Africa,GRDC,1160760,NORWOOD (27663602),-31.584167,28.784167,7105801,120412457,0.3540132793675118,0.5850682768889706,2.745553517535135,2.124206502930763,0.2610948147110887,0.3337025545708831,-1.0025575643810187,-0.37111665508849767
301,Africa,GRDC,1160763,XONKONXA,-31.238056,28.852222,7105699,120390805,1.1161624516548403,1.3066088300325451,0.8260781496958395,0.8181243677228305,0.5376821449791598,0.5241059684363997,0.4925748091996648,0.40538848855071485
302,Africa,GRDC,1160765,MACLEAR (27663509),-31.071667,28.353333,7105590,120420747,1.0291990930989077,1.4369194434295038,0.6676084882606015,0.7322191203812346,0.4704810921056366,0.477572277248615,0.3741190385290182,0.2681967989716463
303,Africa,GRDC,1160770,MAHLUNGULU (27663505),-31.031667,28.884444,7105677,120412422,1.5763695173026806,1.4679117461297115,0.6738911862457723,0.7098495356703922,0.5213518239563891,0.48327584904844456,0.18289972750353944,0.24492878329693402
304,Africa,GRDC,1160772,LUDIWANA,-31.104278,29.399722,7105630,120432397,1.46630352190221,0.44848060583496974,2.939924247039842,1.8825523024995874,0.30926728178574675,0.4368732354493131,-1.1113637173171167,-0.18329369209034918
305,Africa,GRDC,1160773,KU-MAKHOLA,-30.860139,29.07125,7105531,120460668,0.9176771383100536,1.1689685058112391,0.7633720731639413,0.8542254443489042,0.5968323196376158,0.5862016210963348,0.5253274730887212,0.5298620676709245
306,Africa,GRDC,1160774,MGUNGUNDLOVU,-30.775867,29.032217,7105456,120439031,0.8945352089783168,0.7542287216190662,0.88143096929385,1.058579728337295,0.5267087747346159,0.5156692905729218,0.5008146425414184,0.45372960729762535
307,Africa,GRDC,1160775,KROMDRAAI (27663508),-30.570556,29.15,7105423,120468968,1.0129351263798878,1.0257652335651875,1.1733925431918402,0.9367545152240924,0.5159519591402348,0.6670470043443376,0.4856705361451915,0.6601154079378004
308,Africa,GRDC,1160777,NTONTELA,-31.3955,29.265083,7105816,120400800,0.7594318583706186,0.7913307734237303,0.8813351926247639,1.045012385651741,0.5836265612743343,0.5544694147962094,0.5047008906199693,0.505969167628141
309,Africa,GRDC,1160780,NTAFUFU LOC. 35 (27663301),-31.495833,29.528611,7105788,120375846,0.5170352541471981,0.5302661004822954,1.9581870021563266,1.7138569577115692,0.437158518669986,0.48830402742602647,-0.21167974726977845,0.003970652652367401
310,Africa,GRDC,1160785,SLANG FONTEIN (27663504),-30.568333,29.422222,7105334,120475626,0.9390839126922256,0.7142558061917487,1.2571831643358748,1.2888649006988422,0.4999426352004903,0.5160715901657528,0.4343929652126559,0.36811442412760953
311,Africa,GRDC,1160788,INANDA MISSION RES,-29.71511,30.86917,7104957,120410674,2.091293089096458,0.7872171994037207,0.9969873250659168,1.1887665910434784,0.4740321177547817,0.5197061049704615,-0.21143381811532258,0.44179611992891243
312,Africa,GRDC,1160790,MISTLEY (27662202),-29.161667,30.629722,7104631,120457231,0.8966502035276958,0.4200855891076369,2.3072316030009667,2.0066743153950366,0.25085640726763825,0.270273417799441,-0.5102158014162395,-0.3719310427302136
313,Africa,GRDC,1160793,BOSCHFONTEIN (27662203),-29.008889,30.788611,7104659,120377350,1.1872159548469157,0.2432529627772149,2.8430326363908547,2.8659488119893686,0.3175997506495005,0.38511774298420387,-0.9742059702231403,-1.105352995889962
314,Africa,GRDC,1160795,RIET KUIL (27662301),-29.533611,31.089167,7104834,120450600,0.5016072158840827,0.2302283299578953,2.2553514482322887,2.3792870567298854,0.2654900475794084,0.2302794157344067,-0.5374678845564937,-0.7571143920371739
315,Africa,GRDC,1160800,VLAKDRIFT (27661405),-27.435833,29.975833,7103627,120538657,2.366702210470754,2.0613980939414427,0.6335513007074984,0.6395949284844739,0.44808183209871966,0.4307319530347095,-0.5188065200605101,-0.25718886357313675
316,Africa,GRDC,1160810,KUIKVLEI (27661303),-28.309722,30.147778,7104177,120517081,0.6523677662367768,0.6276553429487006,1.7233585135717193,1.6043689402994694,0.41039091287423435,0.4564220373412519,0.004141282746807473,0.10591982399698141
317,Africa,GRDC,1160815,KLEINFONTEIN (27661304),-28.404722,30.012778,7104232,120443868,1.045383304440219,0.9185150774676885,1.1132694867983801,1.0591005103605475,0.5017881414722429,0.5342713603651454,0.48706269687303516,0.5235172314751495
318,Africa,GRDC,1160820,RUST (27661407),-27.849722,29.840556,7103799,120472123,2.633568667082137,1.1563393449523813,0.9171584540714401,0.9267498042733098,0.4538331801613497,0.4665006486146727,-0.724444115330215,0.4392601852171517
319,Africa,GRDC,1160825,BALLENGEICH (27661409),-27.896667,29.953056,7103832,120460478,1.3897479093426721,0.9963867934667537,0.9370611157104894,0.9867841864276321,0.4058969750762726,0.4375991721131332,0.2866815996932961,0.43743231145251094
320,Africa,GRDC,1160840,LOCH SLOY (27661618),-29.066667,29.748056,7104544,120425610,4.5857311799352285,1.180377871108596,0.858633686806108,0.9169490711244317,0.5356796154023967,0.5429893519880404,-2.618431421046775,0.501710560447971
321,Africa,GRDC,1160842,ESTCOURT,-29.00525,29.882639,7104544,120398981,2.415319324013633,1.0905784746553902,0.7688002683962876,0.8741727527389864,0.5016061598974034,0.5224643937762689,-0.5182155725298856,0.497927085538716
322,Africa,GRDC,1160850,TAYSIDE,-28.059167,30.373333,7103934,120528713,1.1269121787099892,0.9928981078165283,0.8632939185799278,0.9285828641043153,0.5462694202278658,0.5378133193319147,0.5094220828222038,0.5322742556164873
323,Africa,GRDC,1160851,SCHURVEPOORT (27661402),-27.6025,29.9425,7103709,120532011,4.491000267385624,3.1287975244247233,0.5767764113946076,0.5126686506810523,0.451295784920092,0.3960631618187928,-2.5591118819847436,-1.2658354857619671
324,Africa,GRDC,1160880,MANDINI (27661102),-29.140278,31.3925,7104653,120492174,1.9259406638983299,1.3438629665593866,0.8400683984097449,1.0323732570861501,0.5980490805518404,0.554276909904703,-0.02201211924953439,0.4361216083325341
325,Africa,GRDC,1160881,TUGELA DRIFT (27661701),-28.735833,29.820833,7104359,120522101,3.1921008196020333,1.5856308962144248,0.5098544607502887,0.6689385404863256,0.47053311194970954,0.4714783955189495,-1.3077876502156682,0.14448826835661766
326,Africa,GRDC,1160882,KLEINE WATERVAL (27661726),-28.721667,29.375556,7104325,120460532,3.2663808994872423,1.5278016012152644,0.6080017124223315,0.7345095228272126,0.4549920547239473,0.45279847964954323,-1.3637213667093784,0.19471171150408328
327,Africa,GRDC,1160883,TUGELA FERRY,-28.750028,30.442222,7104376,120505462,1.9354355923815245,1.674077493001431,0.7018539661555309,0.7113264301750233,0.4849835955320847,0.4580359236548056,-0.10868061309938137,0.08816780242454159
328,Africa,GRDC,1160885,WINTERTON (27661710),-28.818056,29.545,7104411,120540411,2.0691370040569814,1.594855485693466,0.6265435926882208,0.6837358366238816,0.5477943607517535,0.5380414763280567,-0.21943165522880959,0.1831268473693317
329,Africa,GRDC,1160890,KLEINE WATERVAL (27661731),-28.723889,29.351389,7104328,120470515,6.478834250271404,1.6800617131457918,0.6029009034222358,0.6555858929792543,0.4233024426945546,0.41201889689970733,-4.5233950163872905,0.03728156327785859
330,Africa,GRDC,1160891,SCHOON SPRUIT (27661729),-28.508056,29.348056,7104295,120225893,13.3769994872179,1.1050007689362362,0.8853443339452548,1.0722507744721588,0.41961285079439503,0.42881689557786234,-11.391130354867292,0.41476887073025737
331,Africa,GRDC,1160892,FRERE (27661709),-28.892222,29.770278,7104485,120402303,3.5914126987379777,3.649920786824537,0.46297600350872464,0.4445324211582117,0.28274637474411596,0.22540894010994206,-1.7419458986148175,-1.816134889818088
332,Africa,GRDC,1160893,GROOT GELUK (27661734),-28.673056,29.085556,7104363,120377330,25.08656075631683,1.8768185976422918,0.49889027331608715,0.6059671805450655,0.4132729107252174,0.43224652919469597,-23.098916338773577,-0.11643034694980825
333,Africa,GRDC,1160894,KLEINERIVIER (27661741),-28.8125,29.310556,7104529,120478842,1.8056088122123777,1.0594311974737065,0.9098875864798047,0.9715477107927936,0.5935566693399584,0.6046900997341396,0.09318029001201089,0.5992363324320757
334,Africa,GRDC,1160900,DOORNHOEK (27650209),-27.8975,30.883611,7103840,120495423,0.7641849393668657,1.4834780180148197,0.7975718292971778,0.8872482359452699,0.2857504896584956,0.22598000280150135,0.22106593980069233,0.08045070264604315
335,Africa,GRDC,1160911,NATIVE RES. 12 (27650206),-28.069444,31.549444,7103930,120558664,0.31239468436264434,0.6878932204852662,0.5055714343828183,1.06813392531227,0.0669328823580329,0.06654437812731011,-0.2601090915534654,0.013393557894918806
336,Africa,GRDC,1160913,EKUHLENGENI,-27.938639,31.209444,7103868,120493761,0.5733093275408457,0.4264150845184424,2.0875586034851623,2.174216721566087,0.39662271948652544,0.39301017130298604,-0.3148812830891152,-0.4409098572134986
337,Africa,GRDC,1160915,OVERVLOED,-28.339361,31.373833,7104185,120563675,0.8256052995857055,1.434390976187615,1.070500570010183,1.062230466909909,0.4085287022317351,0.3701237085861326,0.3793373396215721,0.23233321441504218
338,Africa,GRDC,1160919,STATE LAND,-28.445639,32.325139,7104191,120573666,0.5689947768132336,0.6391972220306837,1.3514240287559387,1.404795956756398,0.356225193809594,0.38241210602090264,0.14928832646611467,0.1781403903425841
339,Africa,GRDC,1160920,MPATE FOREST RES. (27650114),-28.331389,32.361111,7104132,120410585,81.36339646741575,1.778881977072573,0.7679009652535548,0.6414623361635909,0.13049449603933064,0.12927886430333235,-79.36843535594306,-0.22203178630780496
340,Africa,GRDC,1160930,MORRISVALE (27650111),-27.660278,32.4225,7103692,120613551,1.8453599433799701,0.602914326280409,2.127399834651971,2.2797612575393527,0.16452291148841164,0.15381111321002577,-0.6381958938028378,-0.584771762967432
341,Africa,GRDC,1160940,DASSJES KLIP,-34.251667,20.991944,7106692,120118102,0.07676632116915211,0.5403699932775895,2.8791751972169575,1.54145491966928,0.41304375767765794,0.5317934198916843,-1.1744372784617392,0.14932346055011358
342,Africa,GRDC,1160950,SUURBRAAK (27694303),-34.002778,20.656111,7106677,120204615,0.25479630918792207,1.1418502098482823,1.121332395964623,0.9577818254025009,0.39546129521332024,0.5787312782625603,0.03277865165433025,0.5534899864340744
343,Africa,GRDC,1160955,BARRYDALE (27694304),-33.910556,20.713056,7106677,120212929,2.5711545263293805,1.8960429397519025,1.2648342823910859,0.9155703433955154,0.2758498640483269,0.41455817630092934,-0.7501591819413822,-0.07366821957701464
344,Africa,GRDC,1160957,SPARKENBOSCH (27694307),-34.020278,20.535556,7106677,120211271,0.8292337158963409,0.4206419112105963,4.42906423407848,2.200927627839181,0.27329077283253855,0.43972520953963207,-2.509380137014674,-0.4463024590930358
345,Africa,GRDC,1160960,FARM 216 (27694105),-34.0925,21.294167,7106679,120154700,0.047296002992670484,0.8281027724005289,1.8818225273529623,1.087341592485189,0.36081483974569606,0.48281312891081185,-0.4470015704035113,0.44804033638203444
346,Africa,GRDC,1160965,KRUIS RIVER (27694104),-34.015,21.289167,7106679,120099781,0.16411044587497092,0.418729219341121,4.206795450988009,2.0897555586368752,0.32616666245431225,0.5230186548842019,-2.3817598640294806,-0.3239917301917814
347,Africa,GRDC,1160970,ESHOWE (27650304),-28.872778,31.457222,7104507,120382334,4.8040772651531505,1.1950182099069673,0.6547530599170955,0.8814689560647253,0.23129149151762182,0.17524440086790866,-2.896294657736358,0.14425266061094932
348,Africa,GRDC,1160971,NATIVE RESERVE 21 (27650310),-29.010278,31.459167,7104575,120413957,0.3388070881156278,0.1885987574422692,2.928650911810136,2.638441680376132,0.3803388908127358,0.3930138425715716,-1.1309270979063069,-0.9264722452523737
349,Africa,GRDC,1160974,ESHOWE (27650325),-28.872778,31.457222,7104507,120382334,23.934356080764296,0.3381241270759925,6.512202557587055,2.7750849440330225,0.30559747614831434,0.40004381264825156,-22.597696089667128,-0.9871974377080106
350,Africa,GRDC,1160975,RIVERVIEW (27650309),-28.748056,31.745556,7104413,120497140,1.7340934993152404,1.5881538836222864,0.838846069278408,0.817862316898946,0.35150896772855045,0.31639606571321316,0.007324587762744694,0.07999268187814312
351,Africa,GRDC,1160979,UMHLATUZE VALLEY,-28.801278,31.955389,7104425,120540410,2.8539057267480117,0.7696889597442119,1.2161663445800883,1.164276725229121,0.39377037545949134,0.4086682586714735,-0.9624496655630985,0.3444824594121567
352,Africa,GRDC,1160981,STATE LAND,-30.328278,30.328972,7105284,120384090,1.2082744889212917,0.10504299752200617,8.158365846191863,6.633517423526534,0.12313391115045749,0.2945317311942482,-6.214878653756823,-4.747621427664945
353,Africa,GRDC,1160983,COWICK,-30.399222,30.600778,7105267,120404063,0.21649809833741612,0.48701671919275796,2.1948943691804432,2.148934345165366,0.46894195312769976,0.5067817922928488,-0.5243590235098283,-0.35146815585946567
354,Africa,GRDC,1160985,UMBELI BELLI,-30.274028,30.696028,7105212,120387414,0.6994622529227382,0.537470993599208,1.2320488981847464,1.8007601587092952,0.7051947976996699,0.9182546604284364,0.5192924632686008,0.07165081242028881
355,Africa,GRDC,1196100,FINALE (27521009),-24.331111,30.741389,7101260,120691546,1.886929340507632,0.9652196207869165,1.2006741746406033,1.188789407521588,0.5276444258635767,0.5751554114338495,-0.02471145589318957,0.533798284425615
356,Africa,GRDC,1196101,ZEEKOEGAT (27526002),-24.268056,29.801111,7101124,120621654,0.170579440177973,0.27845775209272655,2.9256407886560294,3.279859461129991,0.6055867370191672,0.5595875090352008,-1.1334462107131942,-1.431531521534696
357,Africa,GRDC,1196102,LOSKOP NOORD (27527001),-24.926389,29.389444,7101737,120570112,1.3714906375140956,0.4688584161636508,1.4415985281035275,1.3940420200631514,0.3606700987951627,0.40450491470642463,0.13874668281717595,0.11005905124865889
358,Africa,GRDC,1196104,WATERVAL,-25.578778,29.127472,7102288,120540201,0.5077253549697911,0.40927512745943767,2.3921493877021858,2.304655478701637,0.3653074529950418,0.3874796961549184,-0.6072488522449877,-0.5576465952733733
359,Africa,GRDC,1196105,LOSKOP NOORD,-24.958611,29.395278,7101737,120626690,1.9383323403845167,0.4385746258238689,2.367308672319036,1.586800528659108,0.27391808222404757,0.4044848143048801,-0.8103026094362056,-0.007060895674591672
360,Africa,GRDC,1196106,SKERP ARABIE,-24.926472,29.323389,7101675,120541824,2.3823267764061105,0.44165656500684136,1.897364254921047,1.908583349339832,0.386413288618197,0.36651613561480195,-0.7585728802536591,-0.24039223656630115
361,Africa,GRDC,1196110,ELANDSPRUIT (27529002),-25.818889,29.3375,7102452,120475323,0.547269679231716,0.8291947432312362,1.938334970342645,1.5431529469400775,0.2892070752590071,0.2868136631526697,-0.26121522420748655,0.08740791665977743
362,Africa,GRDC,1196130,LEEUWFONTEIN (27547029),-25.646944,28.390278,7102269,120462000,3.718516815550345,0.5661801804051607,1.804314852068961,1.8063056259429873,0.27680838746062286,0.26002152811539425,-1.9257925705927974,-0.17724107010980883
363,Africa,GRDC,1196140,MASUNGA RIVER (27521008),-24.009167,30.672222,7100874,120570053,4.032137167377455,4.545608671901549,0.6777405335866779,0.544583625393307,0.12740448590185735,0.26045740032340764,-2.1716131379329626,-2.6504339721819083
364,Africa,GRDC,1196142,CALAIS (27521014),-24.123889,30.355278,7100874,120327117,9.047683310205079,1.0783875563204324,0.8049217528336623,0.9094888716658114,0.350945144548599,0.57873590485788,-7.076170775141888,0.562049875905799
365,Africa,GRDC,1196150,HARMONY (27521010),-24.035,30.433333,7100874,120428615,2.356359307228763,1.2717156074367113,0.5349113532223954,0.6625966839955125,0.28401628478244817,0.4508439726898899,-0.6027010638681944,0.30054112965339597
366,Africa,GRDC,1196160,FLEUR DE LYS (27521004),-24.556111,31.032222,7101325,120600041,0.9196011728036192,0.34595756405149736,2.8246700236815867,2.5812638096644833,0.20776091898384194,0.2874169175568668,-0.990860976619423,-0.853629249111117
367,Africa,GRDC,1196170,DWARS RIVER (27525009),-24.911944,30.103056,7101808,120461952,2.132761422235542,0.6541694630093738,1.5389604141144548,1.5634768833933568,0.38478791669277457,0.41566735588395254,-0.397180258640498,0.11764542421225765
368,Africa,GRDC,1196175,BUFFELSKLOOF,-25.029111,29.855806,7101831,120561799,1.6170636986496945,0.817656650996126,1.2697025013349597,1.1817806679325165,0.5629833453084596,0.5560062751427773,0.19719827859217942,0.48675177947455917
369,Africa,GRDC,1196180,MODDERSPRUIT (27525005),-25.035833,30.219167,7101829,120465287,2.072432969437969,0.661790637397778,1.8610428327325719,1.4888260046966502,0.4061229717476859,0.4424453490918408,-0.4980644707166215,0.1850131138669714
370,Africa,GRDC,1196190,WILLEMSOORD (27524003),-24.686944,30.813611,7101664,120453618,3.748210338219072,1.145601083819767,0.9121887312478346,0.9365013226035225,0.3672787666181899,0.4173468689960227,-1.8214724952028596,0.39608243219017825
371,Africa,GRDC,1196200,MOOIPLAAS - KRUGER NAT. PARK (27523011),-23.526667,31.403333,7100497,120553382,2.7946457355759544,0.5944516373302039,1.695514162246521,1.3424252602094204,0.2284013333157812,0.28213587174195975,-1.073609839997704,0.10722150567270172
372,Africa,GRDC,1196205,SILWERVIS KRUGER NATIONAL PARK,-23.216284,31.223545,7100060,120693137,0.7785351476180854,1.4077291336831095,0.8342053877415642,0.7640293950093868,0.33691719717960655,0.28419485165752734,0.2815201201908176,0.14308566165152525
373,Africa,GRDC,1196210,VLAKTEPLAAS/KRUGER NAT. PARK (27522001),-22.837778,31.237222,7099820,120603258,1.0565123338563396,0.7183391526390969,1.3176113913449186,1.169004037355404,0.23256322566658486,0.2698181057805789,0.16751586057797918,0.19933727686100522
374,Africa,GRDC,1196213,LOCATIE VAN TABAAN,-23.281016,30.543094,7100261,120643222,2.5634507047669888,2.515139621548563,0.3341419655378618,0.4393408581605369,0.14367522364443577,0.16184234512981632,-0.9029022967284956,-0.8200260988601156
375,Africa,GRDC,1196215,LETABA RANCH,-23.658372,31.049904,7100557,120629935,2.2977212598037053,0.34807563188255997,2.6675878504199,1.7909026915657553,0.3353826339439898,0.3919942838610906,-1.2150950205979445,-0.19172287052354076
376,Africa,GRDC,1196220,ENGELHARDT DAM KRUGER NATIONAL PARK,-23.83532,31.637449,7100793,120609978,1.3347682938943124,0.7360896653190838,1.6965276923841235,1.5232346630292974,0.4150204550689114,0.4104168959806979,0.03076230735559793,0.16871700733636397
377,Africa,GRDC,1196300,HAARLEM EAST (27546004),-24.1594,27.479167,7100988,120576719,0.8451951738781054,0.5526719908372948,1.6705344664732023,1.6657784461589231,0.4052929730473857,0.4819276573731825,0.090463055821288,0.04513758093320164
378,Africa,GRDC,1196310,CHIBASE (27541002),-22.907778,30.528056,7099777,120505086,1.788225047110117,0.5825977020496881,1.3859710878119742,1.0382467757020166,0.486853565673941,0.5679999823289634,-0.016657104721180538,0.39807682429268665
379,Africa,GRDC,1196320,TENGWE (27541004),-22.770833,30.538889,7099672,120623222,0.642125820989885,0.8464962242110083,1.5877490028709424,1.2328027883680126,0.4505243863526371,0.42032595825969454,0.11940572999190091,0.35674068827498495
380,Africa,GRDC,1196330,WELTEVREDEN (27541001),-23.112222,30.389444,7099962,120623242,1.1883455227767443,0.7705034608350524,2.603597743127114,2.077233635724685,0.444935874597075,0.3989758045078965,-0.7073652043490086,-0.2547234958317477
381,Africa,GRDC,1196340,MHINGA,-22.768514,30.889258,7099714,120596597,0.91685165058249,0.528547991865867,1.9952762136320472,1.639122004054294,0.43254226590418277,0.465701584739668,-0.14869346190259147,0.04280684885975816
382,Africa,GRDC,1196350,SCHEERPOORT,-25.776944,27.761111,7102375,120491959,1.007240534265969,0.5320269994618384,2.86317899012329,2.113913663631364,0.5113554271955393,0.41245700446543737,-0.9262040112886676,-0.3435062898472283
383,Africa,GRDC,1196360,ZANDRIVIER (27546002),-24.282778,28.089722,7101187,120521816,0.9005299085874184,0.24624726922079654,3.424738447145042,2.572809974207156,0.23296618318092271,0.24579029249397166,-1.5451113359326776,-0.900185958536414
384,Africa,GRDC,1196370,DOORNSPRUIT (27546008),-24.216389,27.973056,7101121,120510164,0.352890541028202,0.255142008882772,3.4984447190163133,2.596601128208724,0.2308945979656405,0.3017715376638424,-1.6930465620389321,-0.895117826190466
385,Africa,GRDC,1196380,BLAKENEY (27546007),-23.763611,27.908056,7100702,120561718,0.4328633703793264,0.5948579682934341,1.9279853244189578,1.584533550558943,0.09256800933958788,0.3001469686291072,-0.4164157358164211,0.002195508577258143
386,Africa,GRDC,1196390,KRUGER NATIONAL PARK,-22.437734,31.077833,7099333,120711392,0.9093343494730767,0.4423694708677774,2.3916846334408643,2.0011267483469233,0.4683439518513867,0.5326050527209477,-0.49253627516181453,-0.23760438348365365
387,Africa,GRDC,1196400,BOTSWANA OXENHAM RANCH,-22.950762,27.973589,7099815,120658177,2.161760411275026,0.7387952398730236,1.625499845242519,1.6017738737462253,0.5359045920807317,0.5145198222586759,-0.3986857607254337,0.18388069204541124
388,Africa,GRDC,1196405,BOTSWANA,-22.934764,28.003922,7099815,120673152,2.9663481982211635,0.7787670194934813,1.0894239144131588,1.1711303124898678,0.5188940165933915,0.5598234371372864,-1.0263229852089788,0.4784781672735935
389,Africa,GRDC,1196410,ZWARTKOP (27547050),-25.991389,27.841944,7102550,120440389,0.16399276770198548,0.2092049847896151,5.7411427610351895,4.748794457933526,0.3082389033350914,0.3077571089665535,-3.863730686194498,-2.893329791335568
390,Africa,GRDC,1196413,KALKHEUWEL,-25.81056,27.90983,7102428,120550203,0.14511826195036132,0.16564886661879494,5.770034403298587,4.62449796547375,0.4077126038476572,0.39199098177608943,-3.8820953856252958,-2.768660542120961
391,Africa,GRDC,1196415,GROOTFONTEIN (27547053),-25.809167,27.475833,7102175,120325561,0.47604482320962727,0.2700515813204321,3.9175495026355223,3.510066421715514,0.2826913540485959,0.32276491994645634,-2.049779634854107,-1.700352845279975
392,Africa,GRDC,1196420,RIETVALLEI (27547039),-25.72,27.185556,7102383,0,21.011955493417815,0.4413087668796251,4.464323800327115,2.2748444305846833,0.3128462017136537,0.27985468160271076,-19.321222463389052,-0.5671545857916773
393,Africa,GRDC,1196423,RIETVALLEI,-25.73486,27.21425,7102383,0,5.709530528841169,0.21397619187370276,4.4590830675232995,4.055815569230278,0.2233659537465235,0.20938230795686158,-4.894751386777345,-2.2528323896357083
394,Africa,GRDC,1196425,MOEDWIL (27547032),-25.637222,27.026944,7102349,120510254,1.4316716542107293,0.6851295366563022,1.769900528635697,1.4590734284435518,0.31835653486055865,0.3946906612017859,-0.11522421719125964,0.17763072952260495
395,Africa,GRDC,1196435,NAAUWPOORT (27548018),-25.814222,26.049139,7102379,120353850,0.7194631716756645,0.06997928400570286,15.825898075393047,9.045701471005442,0.02050247461436265,0.03524032304504935,-13.860867069462202,-7.15653185655496
396,Africa,GRDC,1196440,VAALKOP,-25.20631,27.55794,7101988,120558482,0.7531483269444683,0.47569884576784005,1.4226982767191199,1.786164740932441,0.44247595628425007,0.5182401166636085,0.2580817828407296,-0.06067869093653466
397,Africa,GRDC,1196441,BAVIAANSPOORT,-25.66361,28.35131,7102401,120523570,0.24958197341438518,0.28185580012644457,4.2873807959224415,4.135748561143012,0.3824611368016806,0.3962284518798732,-2.4280247898147684,-2.2731010086524783
398,Africa,GRDC,1196443,KLIPDRIFT,-25.38022,28.3165,7102269,120516894,0.3755821553912846,0.5785438643379961,1.7950651964237603,1.7561098841006417,0.4555029815687584,0.5770510306316614,-0.1482609957281742,0.03656174987102834
399,Africa,GRDC,1196445,RONDAVEL,-25.47086,28.26378,7102322,120453668,0.11791003321914943,0.23465167279892302,5.221687355858829,3.834083264510379,0.4083780566972325,0.46489133757406065,-3.3532451532059504,-1.9839784336905946
400,Africa,GRDC,1196447,BUFFELSPOORT,-25.12856,27.62858,7101917,120571789,0.5480635915181756,0.41124949880996087,2.1826703533205256,2.216852336175577,0.4139341180029161,0.4436449183363981,-0.3951447595055386,-0.4618097474023064
401,Africa,GRDC,1196450,HAAKDORINGDRIFT,-24.69508,27.409,7101606,120648306,1.1001723324721246,0.5214066083557609,1.5047360973416728,1.7145652112664769,0.46849372278579904,0.48610400127916154,0.26020817328743917,-0.0018703375083668483
402,Africa,GRDC,1196455,MAKOPPA,-24.39619,27.08983,7101183,120674910,1.035076355431322,0.5987541253376326,1.3119968116760576,1.4619407101776194,0.5448813115342266,0.5207772022496296,0.44709369528176335,0.2227986351423049
403,Africa,GRDC,1196500,ZAMENKOMST (27543003),-23.067423,29.578913,7100003,120631560,0.7877536573328802,0.5525347677930218,0.8780346536137228,1.0436829094496807,0.27563292471426776,0.2552012958941437,0.23538786600479666,0.1300238852417861
404,Africa,GRDC,1196540,WATERPOORT,-22.910192,29.611039,7099853,120656512,8.845572927939463,2.0640377530965575,0.5603528582876557,0.5665137682819992,0.3533127438578109,0.37354506129872617,-6.884447259262322,-0.3086376287296111
405,Africa,GRDC,1196550,BEITBRUG U/S,-22.224444,29.986944,7099090,120739666,2.235706126975388,1.582197399408173,0.8315716087304948,0.819522687135948,0.5978711783948013,0.6291517088641013,-0.3103607687945076,0.2865195676301382
406,Africa,GRDC,1196551,BEITBRUG D/S,-22.226111,29.990278,7099090,120741330,1.6967821734843231,0.9347778808816614,1.04420253488058,1.0371840684099445,0.4722607441765343,0.4479883382429848,0.1248040313663964,0.4429062426471254
407,Africa,GRDC,1196560,VISCHGAT (27544010),-24.578611,28.639444,7101416,120455273,15.326208181672115,0.9377490016521738,1.0912972111835713,1.0575410798034808,0.3038836410726817,0.3190622685893682,-13.343401062179959,0.3138058899124029
408,Africa,GRDC,1196561,OLIFANTSPOORT (27544012),-24.665278,28.475,7101464,120490224,0.6385254571624934,0.467749600205432,2.1082797711757384,2.088111753590404,0.27883535371134727,0.31550590233253256,-0.37077581805836113,-0.3913338370515762
409,Africa,GRDC,1196562,SUSSENSVALE (27544018),-24.771389,28.348056,7101499,120377077,4.248766248302247,0.39358407945350854,3.3081310088768134,2.6566613278090334,0.2836007313035492,0.32277375576048994,-3.049096047568564,-0.8896831505935037
410,Africa,GRDC,1196563,RIETSPRUIT (27544019),-24.663056,28.454722,7102722,120382063,11.032817876988418,0.4854859714893634,1.535762611351347,1.896452869508409,0.05735881462558626,0.05169571684507497,-9.091236224214775,-0.4027235815491521
411,Africa,GRDC,1196564,MIDDELFONTEIN (27544020),-24.671389,28.560278,7101465,120350445,7.130079870367166,0.8852311293638497,1.033450402685535,1.1731742742610922,0.2382429284971455,0.22168705056927568,-5.1773191582194595,0.1944366752486142
412,Africa,GRDC,1196565,GROENVALEY (27544021),-24.633333,28.596389,7101465,120328813,15.346266969127308,1.069062400224439,1.1105165138903073,1.0086254125788119,0.30827833045790465,0.316252542581992,-13.363358545877416,0.3127194180012751
413,Africa,GRDC,1196566,HARTEBEESTLAAGTE (27544022),-24.602039,28.607493,7101416,120319059,203.58102915236026,1.9531252976207074,0.9746033139601031,0.702894747062151,0.17917628374299732,0.22535369456654294,-201.58269365618148,-0.2636440411799241
414,Africa,GRDC,1196569,LENIESRUS,-22.550215,28.897404,7099445,120656487,2.4619922133283167,1.0623373278837311,1.2399286511648901,1.0384279437668087,0.20607808859889815,0.3627620917738897,-0.6808625734679243,0.3585681634107818
415,Africa,GRDC,1196570,MUISVOGELKRAAL (27545004),-23.981667,28.399444,7101012,120556739,0.256527328469075,0.5434620159716802,2.6997726803698527,2.1815382648352197,0.3257421422130429,0.4083658347457335,-0.9739813669415678,-0.398030968049913
416,Africa,GRDC,1196600,WOLWEKRANS,-26.006389,29.253889,7102617,120530246,0.5205455972494409,1.2309272990908962,0.9357074440413083,0.8360976822120878,0.46047382151304833,0.4492469443638847,0.27536315692525637,0.38070982929309793
417,Africa,GRDC,1196700,WILLEMSOORD (27524001),-24.68,30.801944,7101664,120521841,1.070675947880486,0.8448562989709364,1.7318525586112794,1.269690019213577,0.48243167089638866,0.5845243665186081,0.10084471171783382,0.480940970168923
418,Africa,GRDC,1196710,DRIEHOEK,-24.51752,30.83174,7101333,120628326,1.3769857835717376,1.088387294007788,1.0004659200288881,0.9641911228445355,0.3328171854862085,0.4211071112108232,0.2336766961136999,0.41330453716103055
419,Africa,GRDC,1196720,LOOLE,-24.03642,31.12821,7100839,120648262,2.046292100717456,0.5560249073758999,1.9772691619455722,1.7117681278978285,0.37870851714861953,0.5189582198915569,-0.560700253596832,0.03297934615042608
420,Africa,GRDC,1196800,OXFORD,-24.18473,30.82299,7100977,120699856,1.7261836354375963,0.9244189802846617,1.0637192031353966,0.9832003701018415,0.5239350217746859,0.5462633615886383,0.12934468776774666,0.5397048173804464
421,Africa,GRDC,1196850,MAMBA KRUGER NATIONAL PARK,-24.06628,31.24288,7100882,120654920,1.7484764754448159,1.0016491066121098,1.1117664611171274,1.0470118270896507,0.5598890849337773,0.6049487870493777,0.12455360319128139,0.6021579555996084
422,Africa,GRDC,1197001,TONGA (27613103),-25.682222,31.781667,7102305,120591793,1.5613550265656995,1.429162273973206,0.9966931457049674,0.7421032048765258,0.5719093432385385,0.634126482239106,0.29403115398598134,0.37987545981831716
423,Africa,GRDC,1197010,GEMSBOKHOEK,-25.838111,30.412778,7102493,120576827,1.542303552299816,1.4283810147012888,0.8669627878537243,0.8520278231524646,0.5349926714880507,0.5039353484204027,0.27334749830302485,0.32807277371407895
424,Africa,GRDC,1197090,KOMATIPOORT,-25.436611,31.982444,7102222,120598433,1.993587030848292,0.8699556188138703,0.9267835392202172,0.9082853380746679,0.535220463509647,0.5809728042502535,-0.0993615672467496,0.5517735939638789
425,Africa,GRDC,1197100,VRIESLAND (27613120),-25.838889,30.684167,7102486,120330554,12.051291538310162,1.4872140133792449,0.7145114961527768,0.7138725478628146,0.18473271043063375,0.2139173142154345,-10.084999282994856,0.031923348804494656
426,Africa,GRDC,1197200,WENELA DRIFT (27611004),-24.449444,31.976667,7101231,120580065,1.624910050451267,0.6253650518149103,1.9820416158681282,1.3051712602751493,0.24241393637568065,0.2867015777721315,-0.3888322253784582,0.13844589162819598
427,Africa,GRDC,1197300,HOOGGENOEG (27613101),-26.036111,30.9975,7102605,120558534,1.088283574655044,1.1348623931027901,1.2426701184849414,1.057475531382168,0.6138029998482,0.6131385559159461,0.5354239579082691,0.5862934872402011
428,Africa,GRDC,1197310,LOMATI (27613114),-25.673611,31.575278,7102300,120545200,0.9344032712097504,0.7680217407805952,1.3970291749963886,1.3935594942006033,0.392195125642436,0.40556590857643593,0.2710542805399647,0.2502968072147097
429,Africa,GRDC,1197500,TENBOSCH (27613216),-25.363611,31.955556,7102126,120618396,2.0518072198041186,1.1722747590344214,0.8156455541611931,0.8332885000109439,0.4653251631500551,0.4716225599188046,-0.19422031907563775,0.4197810447635081
