COMID,Station,Hydroweb_Latitude,Hydroweb_Longitude,Station_Name,Station_Latitude,Station_Longitude,Country,ID,Latitude,Longitude,Zo (m),Bias,Variability,Correlation,KGE
208266,Fitzroy_cunninghame_km0328,-18.2765,125.5351,Fitzroy River at Fitzroy Crossing (802055),-18.2963,125.5263,Australia,123979010,-18.2864,125.5307,95.60805758,1.000714871,1.486147846,0.903641827,0.504394172
921282,Trinity_trinity_km0365,31.3018,-95.6754,"Trinity Rv nr Crockett, TX",31.338513,-95.656341,United States of America,8065350,31.3201565,-95.6658705,41.1611884,1.001792794,1.254911496,0.984281074,0.744598023
923059,Sabine_sabine-Trib-01_km0174,30.676,-93.6359,"Sabine Rv nr Bon Wier, TX",30.747146,-93.608508,United States of America,8028500,30.711573,-93.622204,8.348388191,1.004452592,0.98140705,0.942603918,0.939503441
924310,Sabine_neches_km0153,30.5329,-94.0669,"Neches Rv at Evadale, TX",30.355764,-94.093237,United States of America,8041000,30.444332,-94.0800685,8.829920481,1.016932684,1.06981543,0.817028871,0.80343107
924905,West-Fork-San-Jacinto_west-Fork-San-Jacinto_km0078,30.151,-95.3619,"W Fk San Jacinto Rv abv Lk Houston nr Porter, TX",30.086051,-95.299935,United States of America,8068090,30.1185255,-95.3309175,19.43944371,0.966794419,0.249902285,0.990013121,0.249101252
927864,Guadalupe_san-Antonio_km0284,29.0654,-98.1587,"San Antonio Rv nr Falls City, TX",28.951641,-98.064172,United States of America,8183500,29.0085205,-98.111436,95.49140332,0.999247272,4.082150041,0.608357977,-2.106933041
930206,Nueces_nueces_km0003,27.8606,-97.5399,"Nueces Rv at Calallen, TX",27.883077,-97.625273,United States of America,8211500,27.8718385,-97.5825865,-1.033036667,1.039159584,0.520627601,0.235890514,0.097118681
5034457,Ganges-Brahmaputra_jamuna_km0289,25.1609,89.6894,Bahadurabad,25.104949,89.70111,Bangladesh,SW46.9L,25.1329245,89.695255,0.824039806,1.005667027,1.008041719,0.967857094,0.966385259
9000308,Magdalena-2_magdalena_km0017,10.9626,-74.7559,TEBSA BQUILLA [29047000],10.93541667,-74.75208334,Colombia,29047000,10.94900834,-74.75399167,0.160630969,1.004957401,0.80793399,0.871708166,0.768974627
9002167,Magdalena-2_magdalena-Trib-02_km0282,9.2722,-74.4399,SANTA ANA [25027370],9.318217031,-74.58475079,Colombia,25027370,9.295208516,-74.5123254,12.67358874,1.003805036,0.860844711,0.914974024,0.836880138
9002188,Sinu_sinu_km0046,9.2221,-75.8476,LORICA [13077170],9.224635928,-75.82520079,Colombia,13077170,9.223367964,-75.8364004,-0.298263467,1.049290353,0.733849754,0.890027846,0.707836746
9002607,Magdalena-2_magdalena_km0393,8.9566,-74.0374,LAS AGUADAS [25027490],8.952083336,-74.05984833,Colombia,25027490,8.954341668,-74.04862417,18.29438057,1.012232185,0.640876995,0.621201292,0.477881794
9002766,Magdalena-2_magdalena_km0436,8.8306,-73.8093,PENONCITO [25027330],8.982495822,-73.95139261,Colombia,25027330,8.906547911,-73.88034631,23.19938506,1.000525988,0.898755043,0.980122539,0.896820877
9002794,Magdalena-2_magdalena_km0354,8.8074,-74.2699,PALOMAS LAS [25027390],8.82851703,-74.18074802,Colombia,25027390,8.817958515,-74.22532401,15.29057509,0.997148636,0.918476047,0.927113808,0.890607668
9002794,Magdalena-2_magdalena_km0354,8.8074,-74.2699,RIO NUEVO [25027630],8.803750002,-74.26204756,Colombia,25027630,8.805575001,-74.26597378,16.33082227,0.994907639,1.047334321,0.902765541,0.891736386
9003723,Sinu_sinu_km0236,8.1749,-76.0859,CARRIZOLA - AUT [13037040],8.145416669,-76.12708334,Colombia,13037040,8.160158335,-76.10649167,42.10181374,0.999518121,1.036571527,0.594141033,0.592496368
9004355,Magdalena-2_magdalena_km0564,7.8374,-73.8194,SITIO NUEVO [23187280],7.783724512,-73.80375,Colombia,23187280,7.810562256,-73.811575,45.81752958,1.00091522,0.965708739,0.964504304,0.950637336
9005832,Orinoco_arauca_km1470,7.0941,-70.7149,PUENTE INTERNACIONA [37057060],7.092083333,-70.74291667,Colombia,37057060,7.093091667,-70.72890834,121.236232,0.998701507,0.570679402,0.651493813,0.447031263
9007255,Magdalena-2_nare_km0824,6.2376,-74.6466,CANTERAS - AUT [23087210],6.280416667,-74.67708333,Colombia,23087210,6.259008334,-74.66184167,126.3030135,0.999058238,1.334332316,0.524934367,0.419081468
9007305,Magdalena-2_nare_km0821,6.2196,-74.6256,PUERTO BELLO  - AUT [23087230],6.209921352,-74.61730357,Colombia,23087230,6.214760676,-74.62145179,127.3412661,0.999905221,0.952527163,0.586579154,0.583862432
9007373,Orinoco_meta_km1211,6.1929,-69.0091,PATEVACAL [35257020],6.178361419,-69.14228018,Colombia,35257020,6.18563071,-69.07569009,63.20391424,0.998328998,1.090029777,0.980589264,0.907886322
9007373,Orinoco_meta_km1216,6.2203,-69.0376,PATEVACAL [35257020],6.178361419,-69.14228018,Colombia,35257020,6.19933071,-69.08994009,64.05875273,1.00161116,0.947110471,0.942900875,0.922152661
9008290,Magdalena-2_negro_km0905,5.7881,-74.5259,PUERTO LIBRE  - AUT [23067040],5.742917751,-74.62708225,Colombia,23067040,5.765508876,-74.57649113,170.2712936,1.000195369,1.124575718,0.343841775,0.332120696
9008809,Atrato_atrato_km0463,5.6294,-76.654,BORAUDO - AUT [11027070],5.512557677,-76.5858869,Colombia,11027070,5.570978839,-76.61994345,27.43392639,0.997310469,1.673283339,0.881825563,0.316419071
9008809,Atrato_atrato_km0469,5.5953,-76.6606,BORAUDO - AUT [11027070],5.512557677,-76.5858869,Colombia,11027070,5.553928839,-76.62324345,28.97560238,0.999475433,1.179893247,0.892843187,0.790609364
9008809,Atrato_atrato_km0471,5.5816,-76.6551,BORAUDO - AUT [11027070],5.512557677,-76.5858869,Colombia,11027070,5.547078839,-76.62049345,27.61000442,1.003983551,0.657469396,0.365391978,0.278840916
9009478,Orinoco_orinoco_km1149,5.2661,-67.8634,MAIPURES CABANAS [38027700],5.247417892,-67.86580357,Colombia,38027700,5.256758946,-67.86460179,55.80691367,1.000572184,0.96552713,0.999106228,0.965510799
9010111,Orinoco_orinoco_km1182,5.0319,-67.816,PUERTO NARINO [38027020],4.952528063,-67.83894246,Colombia,38027020,4.992214032,-67.82747123,68.36288116,1.000025513,0.86897462,0.997762342,0.868955511
9010348,Orinoco_vichada_km1261,4.8579,-68.2446,SANTA RITA [33077010],4.865443517,-68.36038983,Colombia,33077010,4.861671759,-68.30249492,79.0141906,1.000989168,0.879801591,0.995170514,0.879700541
9011627,Orinoco_meta_km1719,4.3606,-72.3404,HUMAPO [35117010],4.325855781,-72.40227966,Colombia,35117010,4.343227891,-72.37133983,143.9799117,1.002019411,0.922292183,0.875734961,0.853424481
9011802,Orinoco_meta_km1792,4.279,-72.7909,CABUYARO [35107030],4.279583334,-72.79125,Colombia,35107030,4.279291667,-72.791075,158.3172746,0.999932303,1.019000845,0.993617293,0.979955658
9011968,San-Juan-2_san-Juan_km0147,4.2799,-77.0051,PENITAS [54097010],4.292083333,-77.02125,Colombia,54097010,4.285991667,-77.013175,1.119993873,0.988773908,1.104162029,0.738839179,0.718609297
9012207,San-Juan-2_san-Juan_km0100,4.183,-77.1599,MALAGUITA [54077130],4.152386881,-77.22658135,Colombia,54077130,4.167693441,-77.19324068,0.049738243,0.990718041,1.068964863,0.781486447,0.770673857
9013328,Orinoco_guaviare_km1674,3.6832,-69.3866,SAPUARA [32157050],3.668552363,-69.37069246,Colombia,32157050,3.675876182,-69.37864623,98.94422561,1.000240642,0.981865797,0.995523936,0.981320001
9013519,Orinoco_guaviare_km1729,3.5698,-69.6301,BARRANCO MURCIELAG [32157060],3.570024362,-69.59977579,Colombia,32157060,3.569912181,-69.6149379,103.055787,0.998552419,1.083412393,0.993634428,0.916332544
9013696,Amazonas_uraricoera_km2642,3.564,-63.166,UAICAS,3.546866967,-63.16729972,Brazil,14488000,3.555433484,-63.16664986,300.3233184,0.999718743,0.978149172,0.906975413,0.90444315
9014989,Amazonas_uraricoera_km2217,3.1604,-60.5281,FAZENDA PASSARAO,3.207916671,-60.56791668,Brazil,14515000,3.184158336,-60.54800834,56.63998634,1.000180841,0.941482841,0.955853595,0.926697915
9015168,Magdalena-2_magdalena_km1328,2.9578,-75.3031,PUENTE SANTANDER [21097070],2.94375,-75.30625,Colombia,21097070,2.950775,-75.304675,419.2402775,0.999725335,1.523475443,0.284018599,0.11306371
9015469,Amazonas_negro-Trib-38_km2172,2.8391,-60.6419,BOA VISTA,2.825193194,-60.65564016,Brazil,14620000,2.832146597,-60.64877008,57.1499867,1.00087035,0.939283489,0.985796858,0.937638301
9016205,Orinoco_guaviare_km2464,2.6051,-72.6457,PUERTO ARTURO [32107010],2.572083339,-72.74867948,Colombia,32107010,2.58859167,-72.69718974,173.0912375,0.999364784,1.055251538,0.985202905,0.942797815
9016205,Orinoco_guaviare_km2464,2.6051,-72.6457,SAN JOSE GUAVIARE [32107030],2.571383541,-72.64810913,Colombia,32107030,2.588241771,-72.64690457,172.818155,1.000200843,0.968148097,0.994182628,0.967620595
9016205,Orinoco_guaviare_km2469,2.5746,-72.6549,PUERTO ARTURO [32107010],2.572083339,-72.74867948,Colombia,32107010,2.57334167,-72.70178974,173.5260428,0.999564487,1.062535156,0.988977801,0.936499415
9016205,Orinoco_guaviare_km2469,2.5746,-72.6549,SAN JOSE GUAVIARE [32107030],2.571383541,-72.64810913,Colombia,32107030,2.572991771,-72.65150457,173.3034879,1.000181082,0.95748831,0.995928615,0.957293411
9018153,Amazonas_guayas_km3995,1.9031,-75.1424,PUERTO RICO [46037060],1.924583334,-75.15125,Colombia,46037060,1.913841667,-75.146825,242.4172627,1.000537759,1.146393023,0.646551094,0.617433228
9020017,Amazonas_uaupes_km2993,1.2256,-70.2439,MITU [42077020],1.259187522,-70.24727579,Colombia,42077020,1.242393761,-70.2455879,164.5751047,0.999991103,0.960207278,0.997151736,0.960105471
9020047,Amazonas_negro_km2591,1.2591,-66.8686,CUCUI,1.214583334,-66.85291667,Brazil,14110000,1.236841667,-66.86075834,57.89979681,1.000287673,0.995630888,0.99976427,0.995615087
9020047,Amazonas_negro_km2592,1.26,-66.869,CUCUI,1.214583334,-66.85291667,Brazil,14110000,1.237291667,-66.86095834,58.40517309,1.000225538,0.982631991,0.9922444,0.980977699
9020261,Amazonas_uaupes_km3094,1.135,-70.736,MANDI [42057020],1.105638098,-70.71541668,Colombia,42057020,1.120319049,-70.72570834,169.1468483,1.000238331,0.970948416,0.993397397,0.970206616
9020286,Amazonas_uaupes_km3046,1.125,-70.534,SAN ANTONIO [42077010],1.21625,-70.71458333,Colombia,42077010,1.170625,-70.62429167,168.3598716,1.000239824,0.937100721,0.993083776,0.936721165
9020286,Amazonas_uaupes_km3072,1.2066,-70.7071,SAN ANTONIO [42077010],1.21625,-70.71458333,Colombia,42077010,1.211425,-70.71084167,168.3111616,1.000143123,0.996141835,0.997874881,0.995592955
9020286,Amazonas_uaupes_km3074,1.212,-70.719,SAN ANTONIO [42077010],1.21625,-70.71458333,Colombia,42077010,1.214125,-70.71679167,168.9599417,0.999716901,1.015052464,0.983845413,0.977917711
9021824,Amazonas_ica_km4465,0.603,-76.602,PUENTE TEXAS [47017160],0.582083333,-76.57708333,Colombia,47017160,0.592541667,-76.58954167,257.2249028,0.999731365,0.808282111,0.72936619,0.668339812
9023711,Amazonas_caqueta_km3573,-0.0416,-74.6386,TAGUA LA [44117010],-0.058594823,-74.67755764,Colombia,44117010,-0.050097412,-74.65807882,157.3756324,0.999986295,1.043481108,0.984579971,0.953865585
9025451,Amazonas_japura_km3314,-0.62,-73.21,MONOS LOS [44137040],-0.624583333,-73.19252352,Colombia,44137040,-0.622291667,-73.20126176,127.6599749,0.99972625,1.00432934,0.989150007,0.988314947
9025489,Amazonas_caqueta_km3193,-0.5635,-72.4156,MERCEDES LAS [44157010],-0.63875,-72.34375,Colombia,44157010,-0.601125,-72.379675,112.7188142,0.996694661,1.821435145,0.988627515,0.178479486
9025489,Amazonas_japura_km3174,-0.629,-72.303,MERCEDES LAS [44157010],-0.63875,-72.34375,Colombia,44157010,-0.633875,-72.323375,85.78011238,1.000844305,1.02098119,0.945233601,0.941346086
9025489,Amazonas_japura_km3174,-0.629,-72.303,ARARACUARA [44147010],-0.619423967,-72.39249802,Colombia,44147010,-0.624211984,-72.34774901,83.15005158,1.000673679,1.19102465,0.916415877,0.791488187
9026724,Amazonas_trombetas_km0907,-1,-57.0471,GARGANTA,-0.998749993,-57.04625001,Brazil,16430000,-0.999374997,-57.04667501,17.54001589,0.996497523,1.004393662,0.928053629,0.927834552
9026870,Amazonas_ica_km3933,-1.0366,-74.0405,PUERTO TOLOZA [47047020],-1.05156263,-74.07869246,Colombia,47047020,-1.044081315,-74.05959623,139.0500171,0.999643458,1.050481639,0.956369358,0.933275523
9026870,Amazonas_ica_km3940,-1.046,-74.09,PUERTO TOLOZA [47047020],-1.05156263,-74.07869246,Colombia,47047020,-1.048781315,-74.08434623,140.4499395,0.999902964,1.062299685,0.989823051,0.936874487
9027236,Amazonas_caqueta_km2972,-1.0909,-71.1306,SANTA ISABEL [44167020],-1.09875,-71.11875,Colombia,44167020,-1.094825,-71.124675,71.82050832,1.003501078,1.063660747,0.956940633,0.92306459
9028220,Amazonas_caqueta_km2909,-1.4211,-70.7411,MIRANAS LAS [44157020],-1.312916667,-70.82625,Colombia,44157020,-1.367008334,-70.783675,68.14492098,1.000359419,1.015073317,0.989943225,0.981876181
9028244,Amazonas_caqueta_km2890,-1.4167,-70.5936,MARIA MANTECA [44157030],-1.422916667,-70.59125,Colombia,44157030,-1.419808334,-70.592425,66.58445281,0.999864996,1.006592713,0.9925444,0.990046706
9028244,Amazonas_caqueta_km2901,-1.4526,-70.6769,MARIA MANTECA [44157030],-1.422916667,-70.59125,Colombia,44157030,-1.437758334,-70.634075,67.66130313,1.000364422,0.99834119,0.987163838,0.987051969
9028244,Amazonas_japura_km2889,-1.42,-70.579,MARIA MANTECA [44157030],-1.422916667,-70.59125,Colombia,44157030,-1.421458334,-70.585125,67.95998506,0.998638903,0.924701505,0.963136646,0.916151191
9028244,Amazonas_japura_km2900,-1.449,-70.67,MARIA MANTECA [44157030],-1.422916667,-70.59125,Colombia,44157030,-1.435958334,-70.630625,67.80001089,0.999736675,1.056704419,0.984119485,0.941113234
9028244,Amazonas_japura_km2902,-1.449,-70.686,MARIA MANTECA [44157030],-1.422916667,-70.59125,Colombia,44157030,-1.435958334,-70.638625,68.98876677,1.000040396,0.98417275,0.949026871,0.946626192
9029189,Amazonas_ica_km3768,-1.661,-73.514,SAN AGUSTIN [47047040],-1.610023869,-73.4973208,Colombia,47047040,-1.635511935,-73.5056604,120.4500538,0.999462047,1.012272996,0.948478769,0.947034416
9029189,Amazonas_ica_km3774,-1.616,-73.496,SAN AGUSTIN [47047040],-1.610023869,-73.4973208,Colombia,47047040,-1.613011935,-73.4966604,121.1799917,0.999456989,0.929317251,0.90533326,0.881855438
9029189,Amazonas_ica_km3791,-1.522,-73.476,SAN AGUSTIN [47047040],-1.610023869,-73.4973208,Colombia,47047040,-1.566011935,-73.4866604,123.0700159,0.999007231,1.065018996,0.932698978,0.906416438
9029189,Amazonas_ica_km3799,-1.478,-73.515,SAN AGUSTIN [47047040],-1.610023869,-73.4973208,Colombia,47047040,-1.544011935,-73.5061604,123.6800569,1.000030417,1.051390966,0.981287604,0.945308263
9029189,Amazonas_ica_km3800,-1.4771,-73.5184,SAN AGUSTIN [47047040],-1.610023869,-73.4973208,Colombia,47047040,-1.543561935,-73.5078604,123.4600305,1.000146274,1.037366701,0.945414102,0.933849323
9029189,Amazonas_ica_km3807,-1.4296,-73.5424,SAN AGUSTIN [47047040],-1.610023869,-73.4973208,Colombia,47047040,-1.519811935,-73.5198604,124.0998782,1.000033889,0.926819598,0.913005959,0.88631915
9029189,Amazonas_ica_km3809,-1.43,-73.565,SAN AGUSTIN [47047040],-1.610023869,-73.4973208,Colombia,47047040,-1.520011935,-73.5311604,125.2730087,0.999230399,0.969569183,0.938138343,0.931054431
9029657,Amazonas_japura_km2321,-1.8079,-66.6154,ACANAUI,-1.807083327,-66.60282304,Brazil,12850000,-1.807491664,-66.60911152,31.41006427,1.000794274,0.965269552,0.997226256,0.965149913
9029657,Amazonas_japura_km2340,-1.7733,-66.7739,ACANAUI,-1.807083327,-66.60282304,Brazil,12850000,-1.790191664,-66.68836152,32.06478929,1.000434957,0.931231756,0.995980561,0.931113016
9030120,Amazonas_amazonas_km0655,-1.9266,-55.5199,OBIDOS,-1.933749993,-55.51958335,Brazil,17050001,-1.930174997,-55.51974168,3.110013171,1.00092494,1.045421016,0.963978816,0.942021988
9030120,Amazonas_amazonas_km0664,-1.907,-55.596,OBIDOS,-1.933749993,-55.51958335,Brazil,17050001,-1.920374997,-55.55779168,4.340040399,1.005733857,1.019873792,0.964439621,0.958861389
9031749,Amazonas_tapajos_km0555,-2.3924,-54.9569,SANTAREM,-2.40041666,-54.79958335,Brazil,17900000,-2.39640833,-54.87824168,2.400061053,0.996892627,0.99311133,0.999216895,0.992402448
9032282,Amazonas_napo_km3618,-2.4901,-73.6344,SANTA CLOTILDE,-2.48747,-73.67922,Peru,240110,-2.488785,-73.65681,103.7219872,1.001389049,0.855682723,0.94140614,0.844235285
9032282,Amazonas_napo_km3624,-2.476,-73.685,SANTA CLOTILDE,-2.48747,-73.67922,Peru,240110,-2.481735,-73.68211,106.7526029,0.99908996,1.069461476,0.904557692,0.881953573
9033603,Amazonas_cotuhe_km2910,-2.8663,-69.8049,SANTA LUCIA [47107030],-2.883749993,-69.82708334,Colombia,47107030,-2.875024997,-69.81599167,57.91784915,0.999843197,1.049163541,0.994632133,0.950544037
9035798,Amazonas_solimoes_km2678,-3.449,-68.87,SAO PAULO DE OLIVENCA,-3.442916659,-68.91458334,Brazil,11400000,-3.44595833,-68.89229167,46.33502608,1.000146199,1.075311418,0.971464962,0.9194638
9036005,Acarau_acarau_km0091,-3.4606,-40.2152,SANTANA DO ACARAU,-3.455314857,-40.21281489,Brazil,35283000,-3.457957429,-40.21400745,37.88999624,0.99918513,1.205642494,0.864057679,0.753484658
9036028,Amazonas_napo_km3434,-3.4746,-73.0681,BELLAVISTA,-3.48206,-73.0735,Peru,240111,-3.47833,-73.0708,82.80498557,1.000119773,1.007603474,0.987607302,0.985460188
9036459,Amazonas_amazonas-Peru_km3395,-3.553,-73.098,TIMICURILLO,-3.51694,-73.08361,Peru,240202,-3.53497,-73.090805,79.21995252,1.000484464,0.965576826,0.991067315,0.964433408
9036459,Amazonas_amazonas-Peru_km3399,-3.577,-73.126,TIMICURILLO,-3.51694,-73.08361,Peru,240202,-3.54697,-73.104805,79.05237789,1.001153839,0.998092761,0.942810738,0.942767312
9036459,Amazonas_amazone-Peru_km3375,-3.4857,-72.9411,TIMICURILLO,-3.51694,-73.08361,Peru,240202,-3.50132,-73.012355,75.37640341,0.998487667,0.924476103,0.973971194,0.920102284
9036658,Itapecuru_itapecuru_km0126,-3.5774,-44.4003,CANTANHEDE,-3.621981858,-44.38385149,Brazil,33680000,-3.599690929,-44.39207575,2.870010617,1.075095034,0.871329941,0.92321786,0.832397061
9036658,Itapecuru_itapecuru_km0131,-3.6156,-44.3919,CANTANHEDE,-3.621981858,-44.38385149,Brazil,33680000,-3.618790929,-44.38787575,3.345002203,1.07039382,0.860035989,0.910483138,0.819560307
9037415,Amazonas_amazonas-Peru_km2995,-3.809,-70.386,PUERTO NARINO [48017020],-3.812118961,-70.36378561,Colombia,48017020,-3.810559481,-70.37489281,59.88979045,0.999908758,0.991625112,0.997838837,0.991350277
9037610,Amazonas_nanay_km3446,-3.7786,-73.3438,PUERTO ALMENDRA,-3.82743,-73.37741,Peru,240302,-3.803015,-73.360605,78.42754209,1.002087803,0.811391121,0.824727991,0.742516127
9037610,Amazonas_nanay_km3446,-3.7786,-73.3438,SEDA LORETO,-3.75361,-73.28056,Peru,240106,-3.766105,-73.31218,-27.91981086,1.00111004,0.850654373,0.979398819,0.849236088
9038259,Amazonas_purus_km1547,-3.9949,-61.4894,BERURI,-3.893561167,-61.3818945,Brazil,13990000,-3.944230584,-61.43564725,6.000015618,1.001354153,0.999747978,0.999353171,0.99847828
9038259,Amazonas_purus_km1548,-4.008,-61.5,BERURI,-3.893561167,-61.3818945,Brazil,13990000,-3.950780584,-61.44094725,6.656437117,0.994860704,1.047675774,0.992481166,0.951462132
9039399,Amazonas_tapajos_km0815,-4.2492,-55.9396,ITAITUBA,-4.2756,-55.9822,Brazil,17730000,-4.2624,-55.9609,2.929997142,1.002228872,0.956932365,0.997453248,0.956799595
9039635,Amazonas_amazonas_km2921,-4.2379,-69.9626,TABATINGA,-4.234583334,-69.94625,Brazil,10100000,-4.236241667,-69.954425,56.60496681,1.001657216,0.98174385,0.99130129,0.979709585
9039635,Amazonas_amazonas_km2921,-4.2379,-69.9626,LETICIA [48017010],-4.224585155,-69.95291468,Colombia,48017010,-4.231242578,-69.95775734,51.83805853,1.001759219,0.986930898,0.984259898,0.979465953
9039635,Amazonas_amazonas_km2921,-4.2379,-69.9626,SANTA ROSA,-4.25785,-69.95334,Peru,240108,-4.247875,-69.95797,57.63449718,0.99974979,1.026774218,0.960828891,0.952552164
9039819,Amazonas_javari_km3176,-4.3252,-70.8836,ESTIRAO DO REPOUSO,-4.339583333,-70.90791667,Brazil,10500000,-4.332391667,-70.89575834,58.86371663,0.999881492,0.985420137,0.996517343,0.985009491
9039819,Amazonas_javari_km3183,-4.3591,-70.9206,ESTIRAO DO REPOUSO,-4.339583333,-70.90791667,Brazil,10500000,-4.349341667,-70.91425834,59.04988391,0.999463527,0.998217592,0.997126351,0.996576166
9040206,Mearim_mearim_km0283,-4.3186,-44.7239,SAO LUIZ GONZAGA,-4.368761873,-44.67709523,Brazil,33286000,-4.343680937,-44.70049762,11.54995258,0.999908551,0.998650813,0.991795937,0.991685235
9040208,Amazonas_maranon_km4220,-4.4369,-77.4841,BORJA,-4.47,-77.548,Peru,220107,-4.45345,-77.51605,147.2713094,1.000414394,0.701042515,0.982538548,0.700532719
9040619,Amazonas_iriri_km0926,-4.531,-54.019,PEDRA DO O,-4.536249992,-54.00625002,Brazil,18700000,-4.533624996,-54.01262501,147.0435682,1.00060949,1.043926862,0.984548709,0.953430878
9041384,Amazonas_purus_km1674,-4.5236,-62.07,ARUMA - JUSANTE,-4.727878763,-62.14537878,Brazil,13962000,-4.625739382,-62.10768939,6.779939042,1.000292217,0.958099265,0.994787348,0.957775259
9041384,Amazonas_purus_km1688,-4.646,-62.079,ARUMA - JUSANTE,-4.727878763,-62.14537878,Brazil,13962000,-4.686939382,-62.11218939,7.634807571,1.001622154,0.951398388,0.997720496,0.951317927
9041384,Amazonas_purus_km1695,-4.6966,-62.1112,ARUMA - JUSANTE,-4.727878763,-62.14537878,Brazil,13962000,-4.712239382,-62.12828939,6.91316535,1.002813305,0.962821589,0.993397788,0.962135265
9041924,Amazonas_maranon_km4059,-4.8411,-76.6391,SAN LORENZO,-4.83122,-76.70678,Peru,220108,-4.83616,-76.67294,116.4649617,0.999396294,1.073440737,0.857137105,0.839364658
9042297,Piura_piura_km0223,-4.9188,-80.3954,TAMBO GRANDE,-4.93848,-80.34703,Peru,47E0522C,-4.92864,-80.371215,51.58361451,0.998426065,0.982572912,0.885238991,0.883912662
9043285,Amazonas_javari_km3695,-5.084,-72.76,PALMEIRAS DO JAVARI,-5.137916658,-72.81458334,Brazil,10200000,-5.110958329,-72.78729167,82.48498454,1.000620143,1.00965496,0.986367933,0.983283658
9043399,Mearim_mearim_km0488,-5.1371,-44.9904,SANTA VITORIA,-5.100615091,-44.96708335,Brazil,33260000,-5.118857546,-44.97874168,52.56955629,0.999998305,1.0450457,0.97929672,0.950424392
9044756,Amazonas_ucayali_km3760,-5.374,-74.133,FLOR DE PUNGA,-5.40779,-74.157,Peru,251100,-5.390895,-74.145,88.38005925,0.999155524,1.001574949,0.974149456,0.974087759
9045281,Parnaiba_parnaiba_km0460,-5.5616,-43.0244,FAZENDA VENEZA,-5.571671572,-43.02541669,Brazil,34660000,-5.566635786,-43.02490835,64.67007681,0.999820244,1.039929393,0.947899622,0.934358259
9045585,Tocantins_araguaia_km0543,-5.6017,-48.1661,ARAGUATINS,-5.641120728,-48.14208335,Brazil,28850000,-5.621410364,-48.15409168,88.93501359,1.000244443,0.901456334,0.970169283,0.897039884
9049167,Tocantins_araguaia_km0678,-6.3502,-48.4541,XAMBIOA,-6.403732026,-48.55039872,Brazil,28300000,-6.376966013,-48.50224936,112.180052,1.003927968,1.66466887,0.987796306,0.335207501
9049167,Tocantins_araguaia_km0679,-6.3511,-48.4584,XAMBIOA,-6.403732026,-48.55039872,Brazil,28300000,-6.377416013,-48.50439936,112.1547816,1.005325996,1.668299485,0.979863462,0.331376004
9049907,Amazonas_huallaga_km4303,-6.5751,-76.0894,CHAZUTA,-6.56944,-76.09861,Peru,230601,-6.57227,-76.094005,163.0549795,1.00104047,1.427114032,0.969175214,0.571773838
9051980,Parnaiba_caninde_km0757,-7.0084,-42.0561,FAZENDA TALHADA II,-6.985209232,-42.08645745,Brazil,34479000,-6.996804616,-42.07127873,137.7835829,1.000035628,1.249765769,0.97445877,0.748931693
9055111,Tocantins_manuel-Alves-Grande_km0982,-7.6354,-47.3401,GOIATINS,-7.707246671,-47.31192,Brazil,23250000,-7.671323336,-47.32601,161.358761,1.000977215,1.418739064,0.811939836,0.540968428
9055411,Amazonas_libertade_km4434,-7.7257,-71.9949,PONTE DO RIO LIBERDADE,-7.7994,-72.0211,Brazil,12510500,-7.76255,-72.008,162.5700449,0.999133347,0.905287869,0.882983013,0.849453947
9056638,Capibaribe_capibaribe_km0017,-8.0569,-34.9907,SAO LOURENCO DA MATA II,-7.999583325,-35.03791669,Brazil,39187800,-8.028241663,-35.01430835,-0.380026277,0.951905389,0.842861961,0.195854837,0.179235175
9056986,Amazonas_jurupari_km4128,-8.1511,-70.3634,FEIJO,-8.157916657,-70.35791668,Brazil,12650000,-8.154508329,-70.36065834,144.948294,1.000843692,1.122549139,0.785623768,0.753066462
9057507,Amazonas_huallaga_km4640,-8.2422,-76.4631,PUENTE TOCACHE,-8.18475,-76.50789,Peru,230700,-8.213475,-76.485495,475.6873266,1.00008812,0.548953597,0.889919739,0.535715034
9057507,Amazonas_huallaga_km4640,-8.2422,-76.4631,TOCACHE,-8.18111,-76.50556,Peru,47E2E456,-8.211655,-76.48433,475.6543789,1.000370392,0.547573581,0.847723262,0.522634305
9057885,Parnaiba_parnaiba_km1117,-8.3136,-45.6807,FAZENDA PARACATI II,-8.271249991,-45.66375002,Brazil,34040500,-8.292424996,-45.67222501,228.4232382,0.999837155,1.02482707,0.940387721,0.935424202
9058579,Amazonas_madeira_km2138,-8.46,-63.513,PROSPERIDADE (EX. FOZ DO JAMARI),-8.46124999,-63.51958335,Brazil,15490000,-8.460624995,-63.51629168,38.43724037,0.99848581,1.006390817,0.998074662,0.993155861
9058579,Amazonas_madeira_km2138,-8.46,-63.513,UHE SANTO ANTONIO SAO CARLOS,-8.454583324,-63.50875001,Brazil,15490400,-8.457291662,-63.51087501,38.72321403,0.999364102,0.994347758,0.999603612,0.994298305
9059899,Amazonas_madeira_km2230,-8.8016,-63.9651,UHE SANTO ANTONIO MONTANTE,-8.799583333,-63.95125,Brazil,15360000,-8.800591667,-63.958175,-0.009996248,0.999706968,1.183649759,0.897318545,0.789593724
9059899,Amazonas_madeira_km2230,-8.8016,-63.9651,UHE SANTO ANTONIO JUSANTE R-7,-8.784583333,-63.92958333,Brazil,15380000,-8.793091667,-63.94734167,61.39353142,0.995837685,0.075461662,-0.141306161,-0.468798221
9059899,Amazonas_madeira_km2234,-8.8296,-63.9731,UHE SANTO ANTONIO JUSANTE R-7,-8.784583333,-63.92958333,Brazil,15380000,-8.807091667,-63.95134167,62.06603224,0.990687445,0.060287859,-0.062195391,-0.418239994
9059899,Amazonas_madeira_km2240,-8.845,-64.021,UHE SANTO ANTONIO JUSANTE R-7,-8.784583333,-63.92958333,Brazil,15380000,-8.814791667,-63.97529167,45.83499682,1.000349397,1.097833803,0.997471224,0.902132898
9059899,Amazonas_madeira_km2230,-8.8016,-63.9651,UHE SANTO ANTONIO PORTO VELHO,-8.746719913,-63.91958333,Brazil,15390000,-8.774159957,-63.94234167,60.92092194,1.008324303,0.076006434,-0.147118186,-0.472994751
9059899,Amazonas_madeira_km2234,-8.8296,-63.9731,UHE SANTO ANTONIO PORTO VELHO,-8.746719913,-63.91958333,Brazil,15390000,-8.788159957,-63.94634167,62.44582607,0.990986466,0.061465062,-0.068774228,-0.422394961
9059899,Amazonas_madeira_km2230,-8.8016,-63.9651,PORTO VELHO,-8.748490357,-63.91958333,Brazil,15400000,-8.775045179,-63.94234167,61.3767308,1.001475547,0.076684235,-0.098295647,-0.434840586
9059899,Amazonas_madeira_km2234,-8.8296,-63.9731,PORTO VELHO,-8.748490357,-63.91958333,Brazil,15400000,-8.789045179,-63.94634167,62.13163506,0.994248295,0.067306542,0.002705218,-0.365484182
9059899,Amazonas_madeira_km2240,-8.845,-64.021,PORTO VELHO,-8.748490357,-63.91958333,Brazil,15400000,-8.796745179,-63.97029167,46.17272432,0.999760785,1.053693099,0.997061515,0.946226022
9059925,Amazonas_teles-Pires_km1598,-8.7886,-57.4205,UHE SAO MANOEL JUSANTE 2,-8.8594,-57.4192,Brazil,17410100,-8.824,-57.41985,121.5600774,0.999197593,0.806543652,0.983833793,0.805867703
9059935,Parnaiba_gurgueia_km1036,-8.7572,-44.1796,CRISTINO CASTRO II,-8.784162402,-44.20916243,Brazil,34251000,-8.770681201,-44.19438122,223.0050683,1.002169407,1.399827524,0.510778839,0.368173995
9061299,Amazonas_iaco_km3958,-9.1874,-68.7266,SENA MADUREIRA,-9.067083323,-68.65125001,Brazil,13310000,-9.127241662,-68.68892501,118.4898396,1.000884369,0.896761609,0.967919613,0.891888489
9061537,Amazonas_teles-Pires_km1678,-9.2029,-57.0381,UHE SAO MANOEL BARRAMENTO,-9.1875,-57.0428,Brazil,17396080,-9.1952,-57.04045,0.261305975,1.000005671,0.747441901,0.797275882,0.676144073
9061750,Amazonas_madeira_km2346,-9.2569,-64.6371,UHE JIRAU BARRAMENTO,-9.2503,-64.6483,Brazil,15340500,-9.2536,-64.6427,-11.78245549,0.994534427,0.719078855,0.833650205,0.673474631
9061750,Amazonas_madeira_km2346,-9.2569,-64.6371,UHE JIRAU PORTO R4,-9.2486,-64.6264,Brazil,15340600,-9.25275,-64.63175,58.66287787,1.004230017,2.011544152,0.768407887,-0.037725576
9064512,Amazonas_jamari_km2416,-9.867,-63.073,ARIQUEMES,-9.907083323,-63.06958334,Brazil,15430000,-9.887041662,-63.07129167,88.15000065,1.00070293,1.053143168,0.971539152,0.939711442
9064512,Amazonas_jamari_km2420,-9.898,-63.066,ARIQUEMES,-9.907083323,-63.06958334,Brazil,15430000,-9.902541662,-63.06779167,88.85028819,1.000607834,1.050345548,0.951457607,0.930061401
9064512,Amazonas_jamari_km2424,-9.928,-63.06,ARIQUEMES,-9.907083323,-63.06958334,Brazil,15430000,-9.917541662,-63.06479167,89.46669332,1.000556524,1.000155408,0.96760982,0.967604667
9066500,Amazonas_madeira_km2574,-10.344,-65.372,UHE JIRAU JUSANTE RIO BENI,-10.35538836,-65.36205503,Brazil,15318000,-10.34969418,-65.36702752,88.68994605,0.999910692,1.04314412,0.997042509,0.95675454
9066549,Amazonas_abuna_km2907,-10.3478,-67.1959,PLACIDO DE CASTRO,-10.33875,-67.17041667,Brazil,15324000,-10.343275,-67.18315834,112.2099913,0.999296803,1.052127322,0.824764814,0.817174611
9067891,Vaza-Barris_vaza-Barris_km0108,-10.7133,-37.6572,CAMINHO DO RIO,-10.63888953,-37.69638956,Brazil,50169500,-10.67609477,-37.67679478,64.32987839,1.007155005,1.976631176,0.676722976,-0.028769985
9067891,Vaza-Barris_vaza-Barris_km0134,-10.6313,-37.73,CAMINHO DO RIO,-10.63888953,-37.69638956,Brazil,50169500,-10.63509477,-37.71319478,85.41416132,1.001804201,6.445978329,0.45291034,-4.473389289
9068580,Amazonas_jiparana_km2573,-10.8699,-61.9346,JI-PARANA,-10.87291667,-61.93625,Brazil,15560000,-10.87140834,-61.935425,129.8506655,0.999904351,0.976709182,0.994837826,0.976143777
9069081,Amazonas_acre_km4223,-10.9284,-68.6544,BRASILEIA,-11.00843991,-68.74093993,Brazil,13470000,-10.96841996,-68.69766997,167.9898589,0.999014132,0.790464322,0.927223046,0.77818328
9069159,Amazonas_urupa_km2631,-11.019,-62.1299,FAZENDA APURU,-11.00208333,-62.11708333,Brazil,15558500,-11.01054167,-62.12349167,156.5976084,0.999243675,1.035059345,0.912988077,0.906187397
9071683,Amazonas_jiparana_km2724,-11.602,-61.245,SITIO BELA VISTA,-11.6440598,-61.20927353,Brazil,15559000,-11.6230299,-61.22713677,171.8004857,0.99998004,0.962101029,0.963308551,0.947249693
9073013,Sao-Francisco_grande_km1489,-11.9375,-44.8601,SAO SEBASTIAO,-11.96958332,-44.88625002,Brazil,46610000,-11.95354166,-44.87317501,428.6663288,0.99945073,0.906116323,0.442393936,0.434545343
9076251,Amazonas_guapore_km3247,-12.8611,-62.8916,PEDRAS NEGRAS,-12.85458332,-62.90125001,Brazil,15150000,-12.85784166,-62.89642501,135.3665945,0.999919779,1.010475964,0.994472246,0.988154819
9076773,Paraguacu_paraguacu_km0316,-13.004,-40.8756,ACUDE BANDEIRA DE MELO,-13.0317,-40.8169,Brazil,51124500,-13.01785,-40.84625,-5.764177309,0.999949196,1.088062122,0.93477097,0.890410921
9076773,Paraguacu_paraguacu_km0316,-13.004,-40.8756,ACUDE BANDEIRA DE MELO JUSANTE,-13.0403,-40.7772,Brazil,51124600,-13.02215,-40.8264,273.5201601,0.999844175,0.56847663,0.867442133,0.548575553
9078438,Amazonas_guapore_km3617,-13.509,-61.059,PIMENTEIRAS,-13.48715588,-61.04882258,Brazil,15130000,-13.49807794,-61.05391129,161.2100051,0.999860305,0.994093037,0.992364044,0.990344972
9082470,Tocantins_das-Mortes_km1998,-14.6604,-52.1822,XAVANTINA,-14.67208332,-52.35541668,Brazil,26100000,-14.66624166,-52.26880834,243.8640007,0.999865769,1.112030399,0.920688661,0.862737052
9082470,Tocantins_das-Mortes_km2001,-14.6626,-52.2116,XAVANTINA,-14.67208332,-52.35541668,Brazil,26100000,-14.66734166,-52.28350834,244.339963,0.999932489,1.198311764,0.985283996,0.801142964
9085432,Prado_pardo_km0477,-15.5114,-41.2304,CANDIDO SALES,-15.51386513,-41.23613488,Brazil,53620000,-15.51263257,-41.23326744,609.6241833,1.000182311,1.294712421,0.401659406,0.333016558
9085801,Prado_pardo_km0074,-15.5825,-39.3436,MASCOTE,-15.56874999,-39.30291669,Brazil,53950000,-15.575625,-39.32325835,6.615004317,0.99511454,0.842703693,0.778795146,0.728527012
9086979,Sao-Francisco_sao-Francisco_km1837,-15.9461,-44.8697,SAO FRANCISCO,-15.94588583,-44.87088586,Brazil,44200000,-15.94599292,-44.87029293,451.3660757,0.999998927,0.966978816,0.992693695,0.966180173
9087289,Jequitinhonha_jequitinhonha_km0074,-16.0294,-39.2394,ITAPEBI,-16.01439227,-39.42310774,Brazil,54950000,-16.02189614,-39.33125387,14.98499973,0.992809835,0.404448796,0.505993957,0.22619453
9087757,Sao-Francisco_paracatu-Trib-01_km2455,-16.191,-47.1496,PCH MATA VELHA BARRAMENTO,-16.1936,-47.175,Brazil,42458300,-16.1923,-47.1623,-31.67999686,0.999962137,25.01673169,0.515990004,-23.02160833
9089153,Desaguadero_desaguadero_km0822,-16.6059,-69.0303,PUENTE DESAGUADERO,-16.56383,-69.03733,Peru,270700,-16.584865,-69.033815,3802.267491,0.9999968,1.012059086,0.752192565,0.751899322
9091728,Parana_dos-Bois-Trib-04_km3103,-17.3773,-50.6114,PONTE RODAGEM,-17.32874999,-50.68291668,Brazil,60781000,-17.353025,-50.64715834,529.0300533,1.000190531,2.734716311,0.577518778,-0.785421826
9091728,Parana_dos-Bois-Trib-04_km3103,-17.3773,-50.6114,PCH VERDE 8 MONTANTE 3,-17.3661,-50.6419,Brazil,60783000,-17.3717,-50.62665,527.2231921,1.000411343,2.994670466,0.567744101,-1.040969279
9092361,Parana_dos-Bois-Trib-04_km3061,-17.5626,-50.5544,PCH VERDE 8 MONTANTE 1,-17.5908,-50.5558,Brazil,60791000,-17.5767,-50.5551,509.888444,0.999437109,5.284608883,0.599455755,-3.303290519
9094804,Parana_paraguai_km2787,-18.3906,-57.3826,SAO FRANCISCO,-18.39541665,-57.38875001,Brazil,66810000,-18.39300833,-57.38567501,82.9149555,1.002349269,0.72927174,0.88792859,0.706982406
9095562,Cricare_cricare_km0069,-18.6652,-40.0634,BOCA DA VALA,-18.64291665,-40.08041669,Brazil,55960000,-18.65405833,-40.07190835,2.925026199,0.993562238,0.78317454,0.93185803,0.772627942
9096361,Doce_doce_km0312,-18.9249,-41.9956,GOVERNADOR VALADARES,-18.8832636,-41.95256974,Brazil,56850000,-18.9040818,-41.97408487,158.0398999,0.999521938,0.947760296,0.931091918,0.913527236
9098301,Parana_paraguay_km2511,-19.6,-57.451,PORTO ESPERANCA,-19.59667467,-57.43834136,Brazil,66960008,-19.59833734,-57.44467068,80.69996424,0.999826104,0.995068263,0.951955029,0.951702262
9099498,Doce_doce_km0510,-20.0099,-42.7249,"FAZENDA CACHOEIRA D""ANTAS",-19.99541665,-42.67405736,Brazil,56425000,-20.00265833,-42.69947868,254.9979686,1.000026113,1.454866389,0.952295833,0.542638961
9102243,Parana_grande-Trib-14_km3116,-20.9096,-48.0854,UHE MARIMBONDO FAZENDA BELA VISTA,-20.90905068,-48.09011599,Brazil,61855000,-20.90932534,-48.087758,484.2762149,1.000289895,1.653500052,0.325442386,0.060803334
9102790,Parana_grande-Trib-14_km3187,-21.1191,-47.6703,UHE AGUA VERMELHA RIBEIRAO PRETO,-21.1017,-47.7586,Brazil,61833000,-21.1104,-47.71445,506.2600188,1.000069625,1.062914036,0.797910508,0.788343809
9102790,Parana_grande-Trib-14_km3187,-21.1191,-47.6703,CLUBE DE REGATAS,-21.10165904,-47.75750763,Brazil,61834000,-21.11037952,-47.71390382,506.2549956,0.999995527,1.348560197,0.685173753,0.530308849
9104245,Paraiba-Do-Sol_muriae_km0088,-21.6508,-41.7219,SAO FIDELIS,-21.64208332,-41.74541669,Brazil,58880001,-21.64644166,-41.73365835,12.5699887,0.998510232,1.146749092,0.972168023,0.850627532
9104290,Parana_pardo_km2438,-21.669,-52.8486,FAZENDA BURITI,-21.65874999,-52.86125002,Brazil,63970000,-21.663875,-52.85492501,259.3847885,0.999902728,1.213579085,0.970045615,0.784330577
9104400,Paraiba-Do-Sol_paraiba-Do-Sul_km0141,-21.6726,-42.0949,ITAOCARA,-21.66458332,-42.08096675,Brazil,58680001,-21.66859166,-42.08793338,55.00998991,1.000506284,1.393366324,0.567098646,0.415071881
9104576,Paraiba-Do-Sol_ururai_km0033,-21.7578,-41.2811,CAMPOS - PONTE MUNICIPAL,-21.75291665,-41.30155636,Brazil,58974000,-21.75535833,-41.29132818,-1.748482656,1.00238458,1.148731199,0.937649336,0.838710629
9105714,Paraiba-Do-Sol_paraiba-Do-Sul-Trib-01_km0293,-22.1351,-43.2451,PARAIBA DO SUL,-22.16216237,-43.28549574,Brazil,58380001,-22.14863119,-43.26529787,266.4900024,0.999100153,1.288663338,0.708476529,0.589740002
9106791,Paraiba-Do-Sol_paraiba-Do-Sul-Trib-01_km0545,-22.5311,-44.7441,PCH QUELUZ BARRAMENTO,-22.5453,-44.7961,Brazil,58230500,-22.5382,-44.7701,-19.12146309,1.000192528,17.5344967,0.441744325,-15.54391823
9106791,Paraiba-Do-Sol_paraiba-Do-Sul-Trib-01_km0545,-22.5311,-44.7441,PCH QUELUZ JUSANTE,-22.545,-44.7919,Brazil,58230600,-22.53805,-44.768,461.1368709,1.000279407,6.399110726,0.253495201,-4.450473936
9106791,Paraiba-Do-Sol_paraiba-Do-Sul-Trib-01_km0545,-22.5311,-44.7441,PCH LAVRINHAS BARRAMENTO,-22.5681,-44.8636,Brazil,58234880,-22.5496,-44.80385,-32.04342953,1.000018112,38.67530412,0.17668147,-36.68429904
9106791,Paraiba-Do-Sol_paraiba-Do-Sul-Trib-01_km0545,-22.5311,-44.7441,PCH LAVRINHAS JUSANTE,-22.5628,-44.8597,Brazil,58234900,-22.54695,-44.8019,458.5400665,1.000232965,23.85673775,0.008945865,-21.87821341
9106791,Paraiba-Do-Sol_paraiba-Do-Sul-Trib-01_km0545,-22.5311,-44.7441,QUELUZ,-22.53958332,-44.77291669,Brazil,58235100,-22.53534166,-44.75850835,464.0375885,1.000319181,3.894527254,-0.110011747,-2.100066807
9107226,Paraiba-Do-Sol_paraiba-Do-Sul-Trib-01_km0604,-22.6987,-45.1136,PCH LAVRINHAS MONTANTE 2,-22.7072,-45.1278,Brazil,58214250,-22.70295,-45.1207,514.6971502,1.000053073,0.995037331,0.905009482,0.904879921
9111490,Ribeira-Do-Igu_ribeira-De-Iguape_km0161,-24.5039,-48.0441,ELDORADO,-24.51977843,-48.10522157,Brazil,81380000,-24.51183922,-48.07466079,11.98994305,0.998092048,1.125592326,0.901495996,0.840375091
9113017,Parana_paraguai_km1520,-25.2203,-57.5776,Asuncion ANNP,-25.235,-57.514,Paraguay,2000086218,-25.22765,-57.5458,53.87997273,1.004399035,1.011103739,0.912082524,0.911274991
9113017,Parana_paraguai_km1521,-25.2149,-57.5709,Asuncion ANNP,-25.235,-57.514,Paraguay,2000086218,-25.22495,-57.54245,53.8400555,0.998370868,0.936354458,0.993337335,0.935985938
9113680,Parana_iguacu_km2094,-25.5441,-52.992,UHE SALTO OSORIO BARRAMENTO,-25.53708332,-53.01291668,Brazil,65894991,-25.54059166,-53.00245834,0.172075587,0.999942226,1.193823515,0.794934481,0.717830857
9113949,Parana_chopim_km2121,-25.6668,-53.0164,PCH ARTURO ANDREOLI FLOR DA SERRA,-25.67998396,-52.98418271,Brazil,65962000,-25.67339198,-53.00029136,370.5649974,1.000263536,0.968627761,0.865423872,0.861815265
9117231,Parana_parana_km1177,-27.2721,-58.1049,Itati,-27.26636944,-58.24404444,Paraguay,3862,-27.26923472,-58.17447222,46.15446763,1.000353989,0.934939973,0.994453056,0.934702979
9117830,Uruguay_uruguay_km1526,-27.5156,-51.8316,UHE MACHADINHO BARRAMENTO,-27.52708332,-51.78541668,Brazil,72690080,-27.52134166,-51.80850834,-100.2416378,0.997973196,0.226166273,0.643974539,0.148191997
9117830,Uruguay_uruguay_km1526,-27.5156,-51.8316,UHE MACHADINHO JUSANTE,-27.5206,-51.8108,Brazil,72700000,-27.5181,-51.8212,369.6449055,0.998949482,0.937914458,0.768545996,0.760361368
9118527,Uruguay_pelotas_km1633,-27.7181,-51.3099,PCH ESMERALDA MONTANTE 1,-27.8197,-51.3753,Brazil,70844200,-27.7689,-51.3426,471.0598731,1.002558865,92.2098509,0.404161746,-90.2117971
9118527,Uruguay_pelotas_km1633,-27.7181,-51.3099,PCH ESMERALDA BARRAMENTO,-27.7886,-51.3469,Brazil,70844300,-27.75335,-51.3284,-188.1301666,1.002799182,2.636956878,-0.535942931,-1.244717431
9118527,Uruguay_pelotas_km1633,-27.7181,-51.3099,PCH MOINHO BARRAMENTO,-27.7722,-51.3333,Brazil,70844500,-27.74515,-51.3216,-105.0190087,0.999648819,43.2313266,-0.378236502,-41.25381027
9122943,Jacui_taquari_km0072,-29.8605,-51.7889,TAQUARI,-29.80708333,-51.87581428,Brazil,86950000,-29.83379167,-51.83235714,-1.625013803,1.275741509,0.854511957,0.646056479,0.528326208
13017188,Nelson_saskatchewan_km1430,53.3181,-104.0422,CODETTE RESERVOIR ABOVE THE SPILLWAY,53.31972122,-104.0419388,Canada,05KD006,53.31891061,-104.0420694,-34.25053859,1.000762621,2.765246253,-1,-1.667600966
13022647,Nelson_little-Red-Deer_km2836,52.0304,-114.2629,GLENIFFER RESERVOIR NEAR DICKSON,52.04644012,-114.2288132,Canada,05CB006,52.03842006,-114.2458566,0.075873201,1.000025388,1.02309893,0.944875868,0.940231855
13022647,Nelson_little-Red-Deer_km2836,52.0304,-114.2629,DICKSON DAM TUNNEL OUTLET,52.05834961,-114.2185822,Canada,05CB007,52.04437481,-114.2407411,943.7362862,0.999556603,9.513832927,-0.602694097,-7.663369995
13023633,Nelson_dauphin_km1010,51.9044,-98.3081,DAUPHIN RIVER NEAR DAUPHIN RIVER,52.00194931,-98.32978058,Canada,05LM006,51.95317466,-98.31894029,236.4326935,1.000421078,0.87451179,0.767315014,0.735633265
13024715,Attawapiskat_badesdawa_km0780,51.7234,-89.8091,KAWINOGANS RIVER NEAR PICKLE CROW,51.64831161,-89.88691711,Canada,04FA002,51.68585581,-89.84800856,-1.570215864,0.999985025,2.211667666,0.910928484,-0.214937146
13026521,Nelson_chukuni_km1690,51.1504,-93.7584,GOLDEN CREEK NEAR RED LAKE,51.20040131,-93.70844269,Canada,05QC006,51.17540066,-93.73342135,326.9121627,0.999972818,0.493844398,1,0.493844398
13031836,Nelson_oldman_km2574,49.9161,-111.8949,OLDMAN RIVER NEAR THE MOUTH,49.91889191,-111.8000031,Canada,05AG006,49.91749596,-111.8474516,712.1460001,1.000209934,139.9707489,1,-137.9707489
13034791,Columbia_columbia_km1189,49.2305,-117.6669,COLUMBIA RIVER AT BIRCHBANK,49.17784119,-117.7176514,Canada,08NE049,49.2041706,-117.6922757,408.9647494,1.000065055,0.784911184,0.989002759,0.78463022
13036172,Nooksack_nooksack_km0032,48.9415,-122.4331,"NOOKSACK RIVER AT NORTH CEDARVILLE, WA",48.841782,-122.294326,United States of America,12210700,48.891641,-122.363713,-28.40724007,0.993107147,2.405826716,0.587512312,-0.46510831
13042754,John_tobique_km0400,47.1324,-67.2381,TOBIQUE RIVER AT RILEY BROOK,47.17303085,-67.2108078,Canada,01AH002,47.15271543,-67.2244539,148.1760042,0.998852305,1.181215804,0.518594391,0.485615081
13047286,Columbia_lewis_km0135,45.9729,-122.4196,"LEWIS RIVER AT ARIEL, WA",45.951779,-122.56399,United States of America,14220500,45.9623395,-122.491795,71.19368161,0.996880548,1.250602694,-0.294335236,-0.31837595
13047600,John_john_km0094,45.871,-66.2794,SAINT JOHN RIVER AT MAUGERVILLE,45.86647034,-66.45317078,Canada,01AO002,45.86873517,-66.36628539,-0.340002738,1.055227111,0.829292272,0.865495635,0.775762211
13050580,St-Croix_sixteenth-Stream_km0024,45.1514,-67.3804,GRAND FALLS FLOWAGE AT GRAND FALLS,45.27432251,-67.47963715,Canada,01AR013,45.21286126,-67.43001858,-35.33097673,1.007423971,5.392262527,0.71593492,-3.401445012
13050910,St-Lawrence_magog_km0351,45.269,-72.1221,MEMPHREMAGOG (LAC) A MAGOG,45.26753998,-72.16149902,Canada,02OE012,45.26826999,-72.14179951,-7.57040909,0.999984556,0.152897322,0.788272615,0.126838254
13050934,St-Lawrence_richelieu_km0298,45.1731,-73.2571,RICHELIEU (RIVIERE) AUX RAPIDES FRYERS,45.39847183,-73.25843811,Canada,02OJ007,45.28578592,-73.25776906,27.99101107,1.001764236,1.374013961,0.820504026,0.585140554
13050934,St-Lawrence_richelieu_km0298,45.1731,-73.2571,RICHELIEU (RIVIERE) A LA MARINA DE SAINT-JEAN,45.30231094,-73.25012207,Canada,02OJ016,45.23770547,-73.25361104,28.4560753,1.001406084,1.20333868,0.879289664,0.763526786
13053071,St-Lawrence_saint-Louis_km0494,44.6214,-75.6191,ST. LAWRENCE RIVER AT BROCKVILLE,44.57876529,-75.67706804,Canada,02MB007,44.60008265,-75.64808402,-0.251190463,1.000056316,1.005453724,0.972182574,0.971652946
13053829,St-Lawrence_millhaven-Creek-Trib-03_km0716,44.2776,-77.3611,MOIRA RIVER NEAR FOXBORO,44.25373077,-77.41883087,Canada,02HL001,44.26566539,-77.38996544,94.44662557,0.999777475,1.226483053,0.959534461,0.769930265
13054344,St-Lawrence_millhaven-Creek-Trib-04_km0714,44.1114,-77.5903,TRENT RIVER AT TRENTON,44.12377167,-77.59181213,Canada,02HK010,44.11758584,-77.59105607,65.76155968,1.00034191,1.439404261,0.436178218,0.285177489
13056466,Mississippi_cheyenne_km3997,43.5191,-103.0555,CHEYENNE R NEAR BUFFALO GAP SD,43.50137,-103.07353,United States of America,6402600,43.510235,-103.064515,853.2392782,0.999860823,1.426568941,0.746745634,0.503916484
13059018,Mississippi_niobrara_km3225,42.7286,-98.1889,"NIOBRARA RIVER NR. VERDEL, NEBR.",42.739683,-98.224319,United States of America,6465500,42.7341415,-98.2066095,396.3960661,1.000196916,2.427904488,0.466553952,-0.524295231
13059018,Mississippi_niobrara_km3237,42.7656,-98.3176,"NIOBRARA RIVER NR. VERDEL, NEBR.",42.739683,-98.224319,United States of America,6465500,42.7526415,-98.2709595,411.3138011,1.000183284,2.834369697,0.509388819,-0.898844793
13060624,Mississippi_rock-Trib-02_km2549,42.1844,-89.0274,"KISHWAUKEE RIVER NEAR PERRYVILLE, IL",42.194467,-88.998713,United States of America,5440000,42.1894335,-89.0130565,208.4491917,0.9999574,1.208632122,0.963723398,0.788237501
13061132,Mississippi_fox_km2434,42.1461,-88.2859,"FOX RIVER AT ALGONQUIN, IL",42.166413,-88.29036,United States of America,5550000,42.1562565,-88.28813,219.0402168,1.000442502,4.084862081,0.268453286,-2.170415564
13061217,Mississippi_elkhorn-Trib-01_km3089,42.0114,-97.5051,ELKHORN R AT NORFOLK NE,42.003061,-97.426172,United States of America,6799000,42.0072305,-97.465636,465.8852053,1.000283742,2.199934224,0.659450818,-0.247323522
13061403,Mississippi_elkhorn_km3043,41.9807,-97.1076,"Elkhorn River at Pilger, Nebr.",41.995278,-97.058056,United States of America,6799315,41.987989,-97.082828,426.7155986,1.000160132,3.317178974,0.583770674,-1.354265336
13061935,Mississippi_rock_km2450,41.7786,-89.6421,"ROCK RIVER AT COMO, IL",41.782808,-89.749832,United States of America,5443500,41.780704,-89.695966,191.5868155,0.998944013,0.113174312,0.644884699,0.044715857
13062681,Mississippi_rock_km2374,41.5921,-90.1694,"ROCK RIVER NEAR JOSLIN, IL",41.559756,-90.182066,United States of America,5446500,41.575928,-90.175733,171.9671068,0.999875298,0.981378348,0.987395712,0.977513347
13063686,Mississippi_elkhorn_km2904,41.3972,-96.3186,"ELKHORN RIVER AT WATERLOO, NE",41.293331,-96.283772,United States of America,6800500,41.3452655,-96.301186,344.6270671,1.00019766,1.114748849,0.777921197,0.750027337
13064190,Mississippi_platte-Trib-01_km2875,40.9566,-96.4666,"SALT CREEK AT GREENWOOD, NEBR.",40.965506,-96.454367,United States of America,6803555,40.961053,-96.4604835,325.3348743,0.999817325,3.523658668,0.35004943,-1.60601014
13064538,Mississippi_wabash_km2400,40.8579,-85.5071,WABASH RIVER AT HUNTINGTON IND,40.855601,-85.498031,United States of America,3323500,40.8567505,-85.5025655,211.703442,1.00050824,1.626128463,0.513299059,0.206958439
13065316,Mississippi_mississinewa_km2363,40.6925,-85.9181,"MISSISSINEWA RIVER AT PEORIA, IND.",40.723375,-85.957489,United States of America,3327000,40.7079375,-85.9377945,223.3189257,0.99146675,6.299463516,-0.189413517,-4.431306554
13065869,Mississippi_missouri-Trib-09_km2710,40.3506,-95.7366,"LITTLE NEMAHA RIVER AT AUBURN, NE",40.392717,-95.812833,United States of America,6811500,40.3716585,-95.7747165,267.556975,1.001553449,1.617898187,0.724789527,0.323581943
13066312,Mississippi_republican_km3163,40.1725,-99.5356,"REPUBLICAN RIVER NEAR ORLEANS, NEBR.",40.131544,-99.502561,United States of America,6844500,40.152022,-99.5190805,608.5247503,0.999864882,2.320941107,0.251055069,-0.518487384
13066645,Delaware_schuylkill_km0086,40.1099,-75.4379,"Schuylkill River at Manayunk, Philadelphia, PA",40.028056,-75.228889,United States of America,1473800,40.068978,-75.3333945,14.05412005,0.998043696,0.941239706,0.745527961,0.738824546
13066938,Mississippi_missouri-Trib-44_km2416,39.9766,-93.9905,"Grand River near Gallatin, MO",39.926952,-93.942722,United States of America,6897500,39.951776,-93.966611,218.3724361,0.999807764,0.817049677,0.901460008,0.792199644
13067349,Mississippi_little-Blue_km2793,39.7535,-96.8283,"L BLUE R NR BARNES, KS",39.725835,-96.804743,United States of America,6884400,39.7396675,-96.8165215,343.5086297,0.999920706,1.078675618,0.928749102,0.893855996
13067349,Mississippi_little-Blue_km2798,39.7766,-96.8614,"L BLUE R NR BARNES, KS",39.725835,-96.804743,United States of America,6884400,39.7512175,-96.8330715,346.6301379,1.000254598,1.379414931,0.691538318,0.51101701
13068517,Mississippi_platte_km2494,39.3099,-94.8117,"Platte River at Sharps Station, MO",39.400972,-94.726819,United States of America,6821190,39.355436,-94.7692595,223.8921347,1.002074658,1.266107184,0.788520732,0.660087043
13068688,Mississippi_wabash-Trib-07_km2127,39.2064,-86.8276,"WHITE RIVER AT SPENCER, IN",39.281156,-86.762228,United States of America,3357000,39.243778,-86.794914,156.1418716,0.999607727,0.973142959,0.91934692,0.914991919
13069419,Mississippi_smoky-Hill_km2768,38.9461,-97.0284,"SMOKY HILL R AT ENTERPRISE, KS",38.906489,-97.11792,United States of America,6877600,38.9262945,-97.07316,328.9287789,1.000109651,1.046048599,0.931205261,0.917215934
13069419,Mississippi_smoky-Hill_km2793,38.8974,-97.1476,"SMOKY HILL R AT ENTERPRISE, KS",38.906489,-97.11792,United States of America,6877600,38.9019445,-97.13276,335.7096507,0.999733946,0.991694306,0.891744549,0.891426071
13069982,Mississippi_smoky-Hill_km3046,38.6703,-98.1583,"SMOKY HILL R AT ELLSWORTH, KS",38.726676,-98.233668,United States of America,6864500,38.698488,-98.195984,451.8952273,1.000122272,1.879827169,0.603544394,0.034975177
13069982,Mississippi_smoky-Hill_km3074,38.7637,-98.3749,"SMOKY HILL R AT ELLSWORTH, KS",38.726676,-98.233668,United States of America,6864500,38.745188,-98.304284,468.9570552,1.000088189,1.079180887,0.868641022,0.846622029
13070658,Mississippi_cottonwood-Trib-01_km2249,38.3937,-96.3739,"COTTONWOOD R NR PLYMOUTH, KS",38.397514,-96.356112,United States of America,7182250,38.395607,-96.365006,338.6413364,1.00008326,0.888260909,0.946720658,0.876208564
13070728,Mississippi_osage_km2098,38.4703,-92.1381,"Osage River below St. Thomas, MO",38.421444,-92.20825,United States of America,6926510,38.445872,-92.173175,157.9112417,1.001035,1.097744857,0.948605172,0.889561978
13070728,Mississippi_osage_km2116,38.3774,-92.1679,"Osage River below St. Thomas, MO",38.421444,-92.20825,United States of America,6926510,38.399422,-92.188075,159.2368958,1.000214977,1.085012216,0.976852419,0.911892488
13071154,Mississippi_neosho_km2139,38.2812,-95.8763,"NEOSHO R AT BURLINGTON, KS",38.194728,-95.735347,United States of America,7182510,38.237964,-95.8058235,315.6424244,1.000551615,1.442212547,0.765359541,0.499391984
13071884,Mississippi_big-Muddy_km1789,37.8584,-89.0626,"BIG MUDDY RIVER AT PLUMFIELD, IL",37.901439,-89.013962,United States of America,5597000,37.8799195,-89.038281,106.4698038,1.002787588,1.172386509,0.792193981,0.729984777
13072677,Mississippi_ninnescah_km2101,37.4871,-97.5004,"NINNESCAH R NR PECK, KS",37.457064,-97.423938,United States of America,7145500,37.472082,-97.462169,377.9247248,0.999754646,2.527866108,0.565897556,-0.588338703
13072677,Mississippi_ninnescah_km2112,37.4971,-97.5921,"NINNESCAH R NR PECK, KS",37.457064,-97.423938,United States of America,7145500,37.477082,-97.508019,384.4133543,0.999941442,1.057141077,0.649369886,0.644744341
13073131,Mississippi_green-Trib-02_km2316,37.2465,-85.5141,"GREEN RIVER NEAR CAMPBELLSVILLE, KY",37.240341,-85.347185,United States of America,3306000,37.2434205,-85.4306425,132.1615108,1.00080369,1.453516053,0.820864683,0.512386507
13073150,Mississippi_nolin_km2181,37.304,-86.2229,"NOLIN RIVER AT KYROCK, KY",37.278383,-86.247473,United States of America,3311000,37.2911915,-86.2351865,150.3151963,0.991956718,2.280450915,-0.02167837,-0.638122685
13075094,Mississippi_obion_km1434,36.2724,-89.0831,"OBION RIVER AT HWY 51 NEAR OBION, TN",36.240829,-89.217644,United States of America,7026040,36.2566145,-89.150372,76.64824521,1.000268253,0.827433645,0.878583157,0.788999364
13075863,Tar_tar_km0080,35.8977,-77.5111,"TAR RIVER AT TARBORO, NC",35.894444,-77.533056,United States of America,2083500,35.896072,-77.522078,3.382856115,0.994228539,0.957300851,0.974858135,0.950113724
13076155,Mississippi_south-Fork-Forked-Deer_km1408,35.7382,-89.2454,"SOUTH FORK FORKED DEER RIVER NEAR OWL CITY, TN",35.718767,-89.212276,United States of America,7027720,35.7284835,-89.228838,82.99268017,0.999959875,0.6229534,0.831539223,0.587031268
13076260,Tar_tar_km0024,35.5899,-77.2844,"TAR RIVER AT GREENVILLE, NC",35.616667,-77.372778,United States of America,2084000,35.6032835,-77.328589,-1.193823682,0.665700002,0.416636697,0.736193915,0.277737663
13076497,Mississippi_north-Canadian_km2048,35.5257,-97.8341,"North Canadian River at Canton, OK",36.076984,-98.59675,United States of America,7239000,35.801342,-98.215425,383.4238398,1.000486561,2.346154023,0.032609141,-0.657702013
13076497,Mississippi_north-Canadian_km2104,35.6229,-98.1654,"North Canadian River at Canton, OK",36.076984,-98.59675,United States of America,7239000,35.849942,-98.381075,413.2045571,0.999948874,1.25523649,0.645505453,0.563179611
13076497,Mississippi_north-Canadian_km2149,35.7691,-98.3794,"North Canadian River at Canton, OK",36.076984,-98.59675,United States of America,7239000,35.923042,-98.488075,436.4505992,1.000323699,1.96278792,0.44540457,-0.111097105
13076497,Mississippi_north-Canadian_km2265,36.1816,-98.9326,"North Canadian River at Canton, OK",36.076984,-98.59675,United States of America,7239000,36.129292,-98.764675,509.4249589,0.999944327,1.077567638,0.324924156,0.320482424
13078036,Pee-Dee_great-Pee-Dee_km0266,34.6524,-79.8099,"PEE DEE RIVER NR BENNETTSVILLE, S C",34.606268,-79.788396,United States of America,2130561,34.629334,-79.799148,0.398005259,0.992836788,0.839084003,0.95316598,0.832254075
13078407,Cape-Fear_cape-Fear_km0072,34.4541,-78.3504,"CAPE FEAR R AT LOCK #1 NR KELLY, NC",34.404444,-78.293611,United States of America,2105769,34.429272,-78.3220055,-0.532798905,1.023087035,1.492726779,0.662448559,0.402292994
13078407,Cape-Fear_cape-Fear_km0079,34.4756,-78.4006,"CAPE FEAR R AT LOCK #1 NR KELLY, NC",34.404444,-78.293611,United States of America,2105769,34.440022,-78.3471055,-0.405321567,0.990349477,1.495524681,0.877877565,0.489557318
13079441,Altamaha_middle-Oconee_km0518,33.7524,-83.2871,"OCONEE RIVER NEAR PENFIELD, GA",33.721234,-83.295436,United States of America,2218300,33.736817,-83.291268,134.1699226,1.000202168,1.198005008,0.810912976,0.726211895
13079513,Apalachicola_chattahoochee_km0618,33.6387,-84.7261,"CHATTAHOOCHEE RIVER NEAR FAIRBURN, GA",33.656667,-84.673611,United States of America,2337170,33.6476835,-84.6998555,217.5896225,0.999980555,0.944022993,0.928145608,0.908914988
13079600,Mississippi_tallahatchie_km0972,33.5456,-90.2424,"TALLAHATCHIE RIVER AT MONEY, MS",33.651389,-90.211111,United States of America,7281600,33.5984945,-90.2267555,28.39550376,1.002994472,0.906756543,0.754635495,0.737498478
13079600,Mississippi_tallahatchie_km0995,33.6104,-90.2601,"TALLAHATCHIE RIVER AT MONEY, MS",33.651389,-90.211111,United States of America,7281600,33.6308945,-90.2356055,29.5978662,1.00690328,0.994232086,0.801120468,0.800917122
13079600,Mississippi_tallahatchie_km1041,33.8329,-90.2768,"TALLAHATCHIE RIVER AT MONEY, MS",33.651389,-90.211111,United States of America,7281600,33.7421445,-90.2439555,32.54883763,1.008870377,0.920222004,0.744409278,0.732101084
13079600,Mississippi_tallahatchie_km1053,33.9136,-90.2566,"TALLAHATCHIE RIVER AT MONEY, MS",33.651389,-90.211111,United States of America,7281600,33.7824945,-90.2338555,33.36656596,1.003283498,0.992138705,0.816917589,0.816719476
13079923,Alabama_black-Warrior_km0588,33.4031,-87.3945,BLACK WARRIOR RIVER AT HOLT L&D NEAR HOLT AL.,33.253173,-87.44917,United States of America,2462951,33.3281365,-87.421835,-0.128141772,1.000451581,3.40924285,0.090844221,-1.575075833
13080006,Alabama_tombigbee_km0504,33.2459,-88.2999,"TOMBIGBEE RIVER AT BEVILL L&D NR PICKENSVILLE, AL",33.210679,-88.288645,United States of America,2444160,33.2282895,-88.2942725,-0.113798678,1.000052298,3.177515083,0.143475202,-1.339915953
13080308,Altamaha_oconee_km0368,32.8626,-83.0295,"OCONEE RIVER AT AVANT MINE, NEAR OCONEE, GA",32.939873,-83.066815,United States of America,2223056,32.9012365,-83.0481575,57.28484203,1.000449862,1.091331314,0.940785692,0.891151731
13080308,Altamaha_oconee_km0378,32.9267,-83.0606,"OCONEE RIVER AT AVANT MINE, NEAR OCONEE, GA",32.939873,-83.066815,United States of America,2223056,32.9332865,-83.0637075,60.96440333,0.99876516,1.019462939,0.915840205,0.913610175
13080336,Alabama_tombigbee_km0444,32.8926,-88.1829,TOMBIGBEE R AT GAINESVILLE L&D NR GAINESVILLE AL,32.848186,-88.156136,United States of America,2447025,32.870393,-88.169518,-0.051204431,1.001391681,10.19832706,0.178897701,-8.234902904
13080336,Alabama_tombigbee_km0449,32.9307,-88.1991,TOMBIGBEE R AT GAINESVILLE L&D NR GAINESVILLE AL,32.848186,-88.156136,United States of America,2447025,32.889443,-88.177618,-0.137318795,1.00223211,14.41861866,0.085816824,-12.44972352
13080336,Alabama_tombigbee_km0450,32.9316,-88.1949,TOMBIGBEE R AT GAINESVILLE L&D NR GAINESVILLE AL,32.848186,-88.156136,United States of America,2447025,32.889893,-88.175518,-0.131216633,1.001235599,10.34255734,-0.049604314,-8.401332271
13080336,Alabama_tombigbee_km0451,32.9319,-88.1851,TOMBIGBEE R AT GAINESVILLE L&D NR GAINESVILLE AL,32.848186,-88.156136,United States of America,2447025,32.890043,-88.170618,0.104022519,1.000293448,4.760751509,0.14552669,-2.856601695
13080360,Apalachicola_flint_km0583,32.8388,-84.4274,"FLINT RIVER NEAR THOMASTON, GA.",32.839022,-84.424087,United States of America,2346180,32.838911,-84.4257435,150.6223178,1.000937212,3.797683468,0.509489237,-1.84035816
13080509,Pearl_west-Pearl-Trib-01_km0557,32.7096,-89.5305,"PEARL RIVER NR CARTHAGE, MS",32.707222,-89.526389,United States of America,2482550,32.708411,-89.5284445,95.63665379,1.001611118,0.935344933,0.888030681,0.870694155
13080578,Alabama_black-Warrior_km0408,32.716,-87.7964,"BLACK WARRIOR RIVER AT SELDEN L & D NEAR EUTAW, AL",32.777908,-87.840569,United States of America,2466030,32.746954,-87.8184845,-6.338944925,1.013724153,15.16012885,0.087790023,-13.18948781
13080623,Savannah_savannah_km0094,32.5584,-81.296,"SAVANNAH RIVER NEAR CLYO, GA",32.528237,-81.268716,United States of America,2198500,32.5433185,-81.282358,4.650766849,0.998372614,0.945761993,0.989671775,0.9447634
13080707,Alabama_tallapoosa_km0580,32.4446,-86.1851,TALLAPOOSA RIVER NEAR MONT.-MONT. WATER WORKS,32.439859,-86.195522,United States of America,2419890,32.4422295,-86.190311,39.16668655,0.998136066,1.07629065,0.891411957,0.867278108
13080729,Alabama_tombigbee_km0350,32.5312,-87.8489,"TOMBIGBEE R AT DEMOPOLIS L&D NEAR COATOPA, AL.",32.519581,-87.878348,United States of America,2467000,32.5253905,-87.863624,-0.140778802,1.000232197,0.98552949,0.967400418,0.964332335
13081119,Altamaha_altamaha_km0181,31.963,-82.4229,"ALTAMAHA RIVER AT US 221, NR CHARLOTTEVILLE, GA",31.95797,-82.51708,United States of America,2224940,31.960485,-82.46999,20.85058803,1.001951506,0.940758572,0.931445142,0.909373714
13081136,Altamaha_altamaha_km0178,31.9609,-82.3999,"ALTAMAHA RIVER NEAR BAXLEY, GA",31.939083,-82.35346,United States of America,2225000,31.9499915,-82.37668,19.48870655,1.000577836,0.959938231,0.990488466,0.958820533
13081225,Altamaha_ocmulgee_km0231,31.8711,-82.7486,"OCMULGEE RIVER AT LUMBER CITY, GA",31.920183,-82.674027,United States of America,2215500,31.8956415,-82.7113135,28.76136217,0.9999506,0.924345886,0.987023068,0.923240974
13081255,Mississippi_black-Trib-03_km0763,31.9206,-92.5714,"Dugdemona River near Joyce, LA",31.934778,-92.603194,United States of America,7372050,31.927689,-92.587297,19.58806271,1.005553488,0.835931835,0.902957916,0.809300314
13081389,Altamaha_altamaha_km0069,31.6087,-81.7401,"ALTAMAHA RIVER AT DOCTORTOWN, GA",31.654659,-81.827892,United States of America,2226000,31.6316795,-81.783996,4.214680643,1.007248667,0.895054395,0.924994703,0.870802795
13081389,Altamaha_altamaha_km0085,31.6534,-81.8026,"ALTAMAHA RIVER AT DOCTORTOWN, GA",31.654659,-81.827892,United States of America,2226000,31.6540295,-81.815246,6.893950412,0.998015423,0.927256874,0.987669707,0.926192568
13081932,Apalachicola_flint_km0223,30.9266,-84.5586,"FLINT RIVER AT BAINBRIDGE, GA",30.911577,-84.579914,United States of America,2356000,30.9190885,-84.569257,17.59615283,0.999810182,1.456706709,0.803811287,0.502937564
13082014,Ochlockonee_ochlockonee_km0173,30.6818,-84.2876,"OCHLOCKONEE RIVER NR CONCORD, FLA.",30.669085,-84.305181,United States of America,2328522,30.6754425,-84.2963905,22.09040572,1.002594543,0.973664193,0.867306315,0.864693236
13082129,Pearl_pearl_km0114,30.6301,-89.8897,"Bogue Chitto River near Bush, LA",30.629356,-89.897296,United States of America,2492000,30.629728,-89.893498,12.92166441,0.996413755,0.787629524,0.767626255,0.685179991
13082244,Ochlockonee_ochlockonee_km0097,30.3644,-84.6696,"OCHLOCKONEE RIVER NR BLOXHAM, FLA.",30.383253,-84.654911,United States of America,2330000,30.3738265,-84.6622555,7.325946056,1.002176322,0.981434789,0.935084462,0.932446832
13082289,Suwannee_suwannee_km0161,30.1019,-83.1919,"SUWANNEE RIVER AT LURAVILLE, FLA.",30.099945,-83.171525,United States of America,2320000,30.1009225,-83.1817125,0.227443972,1.000878158,0.964518461,0.992353825,0.963693323
13082311,Apalachicola_apalachicola_km0086,30.2195,-85.0954,"APALACHICOLA R.AB CHIPOLA CONR WEWAHITCHKA,FLA",30.134089,-85.144082,United States of America,2358754,30.1767945,-85.119741,1.342357029,0.998692533,1.209531804,0.99248026,0.790329227
13082371,Apalachicola_apalachicola_km0027,29.9108,-85.0114,"APALACHICOLA RIVER NR SUMATRA,FLA.",29.949371,-85.015469,United States of America,2359170,29.9300855,-85.0134345,-0.497606522,1.056271625,1.054939565,0.83696083,0.818984469
13082414,St-Johns_st-Johns_km0142,29.596,-81.6471,"ST. JOHNS R AT BUFFALO BLUFF NEAR SATSUMA, FL",29.596358,-81.683138,United States of America,2244040,29.596179,-81.665119,-3.318402696,0.956219793,1.315039834,0.657572317,0.532641977
13082414,St-Johns_st-Johns_km0143,29.5968,-81.6564,"ST. JOHNS R AT BUFFALO BLUFF NEAR SATSUMA, FL",29.596358,-81.683138,United States of America,2244040,29.596579,-81.669769,-3.371631712,1.213057404,1.11507284,0.682027651,0.600323092
13082453,Suwannee_suwannee_km0005,29.319,-83.1279,SUWANNEE RIVER AB GOPHER RIVER NR SUWANNEE FL,29.339406,-83.086515,United States of America,2323592,29.329203,-83.1072075,-0.315210673,1.178848936,1.97477217,0.234374774,-0.252337699
13082493,Withlacoochee_withlacoochee_km0006,29.0147,-82.7331,"WITHLACOOCHEE R AT INGLIS DAM NR DUNNELLON, FLA.",29.009975,-82.61677,United States of America,2313230,29.0123375,-82.674935,-8.259874729,0.762751197,15.29343567,-0.156272877,-13.34209041
7075305,Nile_nyabarongo_km6813,-2.0649,30.0722,Kanzenze,-2.0613,30.0877,Rwanda,259501,-2.0631,30.07995,1340.483835,1.000064495,0.806146769,0.839576023,0.748375415
12006249,Tweed_tweed_km0011,55.7473,-2.1164,NORHAM,55.722689,-2.163373,United Kingdom,6605750,55.7349945,-2.1398865,-0.155339005,1.057175624,1.106404782,0.881911105,0.831073931