Folder,Data_Source,Code,Name,Latitude,Longitude,COMID_v1,COMID_v2,Bias,Bias Corrected,Variability,Corrected Variability,Correlation,Corrected Correlation,KGE,Corrected KGE
Africa,Ethiopia,31013,Awash_at_Melka_Hombole,8.383333,38.783333,7055126,110884878,3.385242377,0.955533745,0.785026601,1.044105463,0.761882921,0.774423858,-1.406718617,0.765890762
Africa,GRDC,1104150,SIDI BELATAR,36.02,0.27,7000293,150293767,0.786338911,0.945787673,0.769263945,0.983679425,0.611098487,0.607839228,0.499865443,0.603773539
Africa,GRDC,1104450,FER A CHEVAL,36.67,2.82,7000070,150234194,0.849095594,1.231863311,0.768636355,0.918451741,0.665096738,0.695275815,0.565878507,0.608506012
Africa,GRDC,1104600,SIDI YAHIA,36.42,4.6,7000155,150275877,1.847724996,0.926858028,0.9277775,1.132332466,0.546345923,0.560173704,0.035813411,0.534909901
Africa,GRDC,1104800,BOUCHEGOUF,36.45,7.72,7000140,150250082,0.203490313,0.880959683,0.94905761,1.150391785,0.620250693,0.688871447,0.116126511,0.634501351
Africa,GRDC,1107700,PIERRE DU CHAT,35.15,-1.45,7000697,150488274,1.322915463,2.032918794,0.45806244,0.583041642,0.312384352,0.322099188,0.066840852,-0.303965114
Africa,GRDC,1107800,BENSEKRANE,35.07,-1.22,7000709,150531926,0.90840972,1.155896629,0.779394521,1.211221398,0.309510486,0.161123851,0.269362385,0.121005443
Africa,GRDC,1112100,KAYES,14.45,-11.28,7039846,140568540,3.095179433,1.083716594,0.800229218,0.879644595,0.848731475,0.875972873,-1.110110752,0.807967138
Africa,GRDC,1112110,KABATE,14.31,-11.13,7038813,140673368,2.88294636,0.227139835,4.144036996,2.49160561,0.358829312,0.407992468,-2.720424099,-0.78119989
Africa,GRDC,1112200,GOURBASSY,13.23,-11.38,7042358,140661803,2.533367905,1.120513453,0.690254309,0.818324943,0.713809925,0.750512191,-0.590303205,0.66867918
Africa,GRDC,1112300,GALOUGO,13.83,-11.13,7040646,140587514,3.268934759,1.081161577,0.787817069,0.867544953,0.828769469,0.865420028,-1.285258504,0.794468227
Africa,GRDC,1112320,OUALIA,13.36,-9.23,7042047,140677803,0.268719149,0.57009884,1.311968309,1.306122107,0.352157138,0.39814212,-0.025571199,0.199525978
Africa,GRDC,1112330,SIRAMAKANA,13.34,-9.53,7041180,140607909,2.775503007,0.735973427,0.686825845,0.936206577,0.482578735,0.54681404,-0.875690205,0.47164676
Africa,GRDC,1112340,TOUKOTO,13.45,-9.88,7041703,140631222,4.392207027,0.877717453,0.84475693,0.850380631,0.495452115,0.561521835,-2.433036191,0.52083189
Africa,GRDC,1112350,DIBIA,13.14,-10.48,7042093,140628328,2.87833147,1.198653827,0.910637699,0.942524511,0.849385698,0.85913989,-0.886478041,0.749783403
Africa,GRDC,1112400,FADOUGOU,12.31,-11.23,7044169,140593434,1.400439747,1.156988506,0.872423511,0.857943604,0.709719083,0.80567739,0.489225331,0.712621003
Africa,GRDC,1112480,DAKA SAYDOU,12.15,-10.2,7044818,140618231,2.404942627,1.058129427,0.811300724,0.919754062,0.867309192,0.885960223,-0.423754913,0.848925477
Africa,GRDC,1112500,BAFING MAKANA,12.33,-10.16,7044698,140667691,2.57617619,1.114012682,0.888479906,0.947553216,0.8510755,0.875988693,-0.587118968,0.823567687
Africa,GRDC,1134020,GUELELINKORO,11.15,-8.55,7048067,140603729,3.334556141,1.431343858,1.070426535,0.864006471,0.774490884,0.892793274,-1.346479626,0.535193539
Africa,GRDC,1134030,BANANKORO,11.6833,-8.6667,7046247,140645914,2.172449482,1.296599109,0.878561789,0.953711727,0.839548844,0.872853268,-0.1895922,0.673993976
Africa,GRDC,1134040,GOUALA,11.97,-8.23,7045656,140597846,2.930231446,1.959507993,1.064140245,1.072732132,0.785117038,0.797487884,-0.943214372,0.01666043
Africa,GRDC,1134050,SELINGUE,11.58,-8.17,7046215,140578944,2.892828326,1.664465152,0.942209791,0.894991948,0.596275122,0.652981199,-0.936267687,0.243057018
Africa,GRDC,1134060,YANFOLILA,11.13,-8.2,7047806,140587713,2.958291325,1.344192962,1.336918985,0.909721364,0.482128629,0.971036318,-1.053438598,0.642987505
Africa,GRDC,1134080,MADINA DIASSA,10.8,-7.67,7048474,140613947,4.055078284,1.363425653,0.850900108,0.794299411,0.679918616,0.818085227,-2.075416426,0.544495969
Africa,GRDC,1134100,KOULIKORO,12.8667,-7.55,7043104,140610883,2.172825862,1.482116158,0.944559431,0.984162025,0.816287395,0.856343473,-0.188421003,0.496686947
Africa,GRDC,1134110,BOUGOUNI,11.4,-7.45,7046813,140656126,3.75462389,1.977767156,0.848664399,0.774559848,0.703190186,0.817722441,-1.774698417,-0.019841645
Africa,GRDC,1134150,KOLONDIEBA,11.07,-6.85,7047830,140628488,5.675956354,1.327605156,0.89719869,0.879045996,0.563443518,0.738152829,-3.697416045,0.563515235
Africa,GRDC,1134200,DIOILA,12.52,-6.8,7043969,140673515,3.706995852,2.639504934,0.90763791,0.799835326,0.697166334,0.796477761,-1.725447767,-0.664170553
Africa,GRDC,1134220,PANKOUROU,11.42,-6.57,7046695,140584781,2.400706531,2.255257338,0.960644834,0.904626997,0.660551854,0.795625656,-0.441788008,-0.275357153
Africa,GRDC,1134250,KIRANGO AVAL,13.7167,-6.05,7041419,140632663,2.892783785,1.891479525,0.873565196,0.900252706,0.864176088,0.878006618,-0.901858131,0.094700242
Africa,GRDC,1134300,DOUNA,13.2167,-5.9,7042161,140632696,2.593878453,2.350589099,1.002372422,0.955918479,0.692456959,0.784974188,-0.623279666,-0.368309247
Africa,GRDC,1134310,KOUORO 2,12.02,-6.68,7045676,140597840,0.417045932,0.580604395,1.820999824,1.516989453,0.366814947,0.550128098,-0.189453432,0.196535317
Africa,GRDC,1134320,KOUORO 1,12.02,-6.68,7045676,140597840,0.341499441,0.965442923,4.020080737,3.299482027,0.154212601,0.327638307,-2.204663316,-1.396013779
Africa,GRDC,1134350,KLELA,11.68,-5.58,7046136,140593498,0.961892548,1.029424617,1.590253569,0.936920238,0.493976788,0.816244706,0.221597183,0.803503505
Africa,GRDC,1134400,KE-MACINA,13.95,-5.37,7041419,140622448,3.022280857,1.977606289,0.864382442,0.859194918,0.916551681,0.90967135,-1.028540265,0.008183791
Africa,GRDC,1134420,KARA,14.17,-5.02,7039566,140431694,0.000835987,0.444711911,6.068202966,1.331964707,0.044361248,0.722191858,-4.253404177,0.295924157
Africa,GRDC,1134450,BENENY-KEGNY,13.38,-4.92,7041724,140606476,3.717443032,3.647713052,1.011347969,0.830199964,0.696569533,0.779979054,-1.734354669,-1.662259506
Africa,GRDC,1134460,TILEMBEYA,14.15,-4.98,7039904,140623891,4.3845692,2.007108099,1.019761473,1.024370286,0.954254411,0.955073834,-2.384936017,-0.008404182
Africa,GRDC,1134480,SOFARA,14.02,-4.25,7040218,140679229,3.456760533,2.439021458,1.137789643,0.796794304,0.655658824,0.784152499,-1.484598388,-0.469239754
Africa,GRDC,1134500,NANTAKA (MOPTI),14.53,-4.22,7039063,140680647,0.83914346,1.563267895,1.432157058,0.934797073,0.660085554,0.845353115,0.427133192,0.412260429
Africa,GRDC,1134505,MOPTI,14.53,-4.22,7039063,140666091,0.89066011,0.998707207,1.257467951,1.053230498,0.898827209,0.973753203,0.702542623,0.940636278
Africa,GRDC,1134600,AKKA,15.4,-4.23,7036843,140632534,4.622933608,0.988934084,1.171917374,1.035745737,0.833192952,0.98846654,-2.630843993,0.960843482
Africa,GRDC,1134620,GOUNDAM,16.42,-3.65,7034167,140529084,0.003496835,0.277650761,2.612767584,2.531473328,-0.057341019,0.307885821,-1.17071598,-0.82926789
Africa,GRDC,1134630,TONKA,16.13,-3.75,7034867,140479603,7.17E-06,0.412438553,5.686232611,1.596744507,-0.007160946,0.770139827,-3.896441046,0.131571442
Africa,GRDC,1134650,SARAFERE,15.82,-3.7,7035658,140660169,0.025583852,0.702091942,4.414608082,1.522254771,-0.021696901,0.597296557,-2.69498305,0.276350002
Africa,GRDC,1134700,DIRE,16.2667,-3.3833,7034775,140504347,4.13732219,1.397618374,1.28955029,0.908930578,0.626825333,0.82740968,-2.172678557,0.557076271
Africa,GRDC,1134730,KORYOUME,16.6666,-3.0333,7033566,140556730,4.352046338,1.252657585,1.291605069,1.01879789,0.568506545,0.820533455,-2.392261012,0.689520602
Africa,GRDC,1134850,TOSSAYE,16.93,-0.58,7032840,140448965,4.890045685,1.643785781,1.308839209,0.786924241,0.499718091,0.757965802,-2.934224076,0.279970859
Africa,GRDC,1134900,ANSONGO,15.6667,0.5,7036338,140561171,4.044499918,1.266318483,1.338216077,0.94004297,0.433450302,0.800109177,-2.11518032,0.661655914
Africa,GRDC,1147010,KINSHASA,-4.3,15.3,7078330,130800352,1.539263648,1.074319864,1.845137733,0.924498503,0.532483802,0.781612196,-0.106180123,0.757271445
Africa,GRDC,1159100,VIOOLSDRIF (27811003),-28.757778,17.721389,7104378,120552054,2.349298052,1.953396966,0.581998426,0.623310934,0.491082977,0.435280892,-0.501441669,-0.170370923
Africa,GRDC,1159103,PELLA MISSION,-28.963403,19.151922,7104513,120533763,3.202757999,1.312583319,0.544368647,0.759098686,0.473314406,0.529492993,-1.310225194,0.385900156
Africa,GRDC,1159105,SENDELINGSDRIF,-28.07583,16.89833,7103974,120585290,6.151181856,0.773577683,0.936865405,1.033058967,0.279796572,0.403551501,-4.201668335,0.361164518
Africa,GRDC,1159110,HARDEHEUWEL (27814003),-31.806667,20.357778,7106039,120359226,0.49509659,2.310647374,0.710478238,0.452032455,0.20327291,0.408495321,0.013326619,-0.538812125
Africa,GRDC,1159120,BONEKRAAL (27814011),-31.815278,20.578056,7105928,120407484,0.734965666,4.43968219,0.329980655,0.243108089,0.258189003,0.172248154,-0.03414345,-2.617937541
Africa,GRDC,1159125,LEEUWENKUIL,-31.43716,20.474169,7105808,120429090,1.336603347,2.35096596,0.580412363,0.405584798,0.28653592,0.306982249,0.106475187,-0.630555752
Africa,GRDC,1159130,HOL PADS LEEGTE (27814016),-30.474444,20.519167,7105299,120425703,1.099928702,2.336369272,0.476280362,0.455148181,0.523209256,0.540405103,0.284739615,-0.514587008
Africa,GRDC,1159131,WINDHOEK (27814013),-31.366111,21.322222,7105717,120447390,0.683674805,2.182664505,0.160420096,0.23264557,0.152418444,0.150400305,-0.234240875,-0.646009657
Africa,GRDC,1159290,KAKAMAS SOUTH NEUSBERG,-28.77466,20.722429,7104373,120515447,2.371946726,1.164793716,0.646019962,0.805455172,0.444067163,0.381888229,-0.522038438,0.331369444
Africa,GRDC,1159300,UPINGTON,-28.457778,21.239167,7104190,120548707,1.944349175,1.378088236,0.719521595,0.75243627,0.514457954,0.499332087,-0.098278006,0.325532155
Africa,GRDC,1159301,PRIESKA (27815102),-29.651667,22.745833,7104884,120482224,2.04976013,1.304924953,0.675700029,0.805821715,0.535662813,0.548604628,-0.19280167,0.421690208
Africa,GRDC,1159302,MARKSDRIFT (27815208),-29.161944,23.695833,7104688,120523792,1.681941388,1.307505136,1.029323061,0.918471988,0.351037992,0.34410452,0.058163716,0.271024619
Africa,GRDC,1159303,VLUYTJESKRAAL (27815205),-29.814722,24.4375,7104961,120477242,4.00406827,0.596145873,4.004336253,2.544513802,0.080570454,0.035357672,-3.346931467,-0.865249544
Africa,GRDC,1159304,IRENE,-29.182852,23.575107,7104640,120498831,1.800805331,0.965528135,0.723003589,0.801777552,0.466993203,0.458755855,-0.001055661,0.422569768
Africa,GRDC,1159305,DE EERSTEPOORT,-30.534722,24.9625,7105409,120473960,2.915901724,1.676750565,0.593692908,0.597942515,0.30281607,0.375266587,-1.078901224,-0.00495442
Africa,GRDC,1159310,SHANNON VALLEY (27817207),-29.144167,26.318056,7104660,120447247,0.469160243,0.666081852,1.490423163,1.410504019,0.3015376,0.265133788,-0.005064898,0.094437617
Africa,GRDC,1159320,KROMDRAAI (27817212),-29.658056,25.972778,7104885,120448944,0.845420764,0.713495514,1.845612166,1.471054136,0.287310793,0.332810367,-0.116638071,0.134483492
Africa,GRDC,1159321,RIVIERA (27817208),-29.8125,26.2117,7104973,120433978,1.272189394,2.54063887,0.64740728,0.576191679,0.483097937,0.433059008,0.317653728,-0.695465632
Africa,GRDC,1159325,OS POORT (27817209),-29.9025,26.214444,7105005,120405697,2.846628358,2.882021406,0.50091099,0.835545996,0.261612824,0.152281717,-1.050449159,-1.070670418
Africa,GRDC,1159330,KLIPDRIFT,-29.0425,24.599167,7104559,120530440,0.9077478,0.660102236,0.739567204,1.72954079,0.256236547,0.657562932,0.206577172,0.125343839
Africa,GRDC,1159333,LIKATLONG,-29.160833,26.572222,7104638,120453905,0.609328956,0.382843219,2.066673778,1.757224478,0.307807391,0.367515546,-0.330243369,-0.163747389
Africa,GRDC,1159335,TWEERIVIERE,-29.028611,24.638333,7104564,120482183,1.780219517,1.40612414,0.55308832,0.656350835,0.311714459,0.436571234,-0.132346913,0.22509127
Africa,GRDC,1159337,GLEN,-28.948611,26.321111,7104509,120495491,0.356998702,0.714292106,1.039345885,1.271254849,0.311037954,0.474528085,0.056778144,0.343243632
Africa,GRDC,1159400,TAUNG (27817303),-27.573333,24.745833,7103626,120605224,4.04411295,1.960630411,1.034567958,0.883124444,0.204069502,0.230788145,-2.146636928,-0.236186701
Africa,GRDC,1159403,ESPAGSDRIF,-27.903208,24.615143,7103900,120543679,1.186744315,0.616752458,1.525212532,1.371876834,0.302648105,0.34316735,0.107239501,0.153477592
Africa,GRDC,1159405,LLOYDS,-28.386511,24.297076,7104138,120507102,4.683810269,0.247207738,7.542552519,3.010924729,0.094715684,0.234081343,-6.562737022,-1.279724949
Africa,GRDC,1159413,FIZANTKRAAL,-27.935,26.124444,7103865,120593602,0.009185222,0.628217558,1.843568617,1.655954513,0.147546578,0.174816829,-0.555634524,-0.117777157
Africa,GRDC,1159415,VAALKOPPIES,-28.144444,26.418056,7104129,120623567,0.247215761,0.349061168,1.646218715,2.070234935,0.320293744,0.430861308,-0.202615205,-0.375879003
Africa,GRDC,1159417,BLOUDRIF,-28.117222,26.719167,7103989,120565325,1.752622553,0.518288893,1.920100499,1.659502605,0.377720739,0.445596726,-0.341736604,0.012907164
Africa,GRDC,1159419,MOND VAN DOORN RIVER,-28.116667,26.725278,7103989,120588622,10.56963861,1.083443021,1.001654567,0.96035995,0.18093976,0.195003582,-8.604626257,0.189720231
Africa,GRDC,1159450,SCHMIDTSDRIF,-28.711492,24.072902,7104331,120547058,2.607241298,1.201505466,0.480281919,0.748282484,0.363019349,0.304807753,-0.805291063,0.23367212
Africa,GRDC,1159490,DE HOOP 65,-28.516227,24.600696,7104265,120588646,2.854462878,2.124045023,0.421775115,0.508016199,0.467177666,0.51444904,-1.014268161,-0.319577588
Africa,GRDC,1159500,DE HOOP 65,-28.498889,24.603056,7104265,120560357,137.5365984,6.757155618,0.29356611,0.227837626,0.048705419,0.066499872,-135.5417399,-4.883238736
Africa,GRDC,1159510,GROOTDRAAI (27817602),-27.398333,26.613056,7103518,120570270,4.338056129,1.203371611,2.485696811,2.737944289,0.077993674,0.090489114,-2.768289983,-0.972059942
Africa,GRDC,1159511,MOOIFONTEIN (27817603),-27.399722,26.625556,7103518,120570270,1.339429144,2.299322492,0.543323239,0.523000768,0.414416599,0.436721482,0.183499096,-0.494339284
Africa,GRDC,1159512,KLIPFONTEIN (27817604),-27.935556,27.996389,7103994,120575298,3.653049545,0.628190471,1.3126923,1.476861812,0.440079941,0.498010335,-1.729461272,0.214103609
Africa,GRDC,1159513,KROONSTAD,-27.671389,27.236944,7103697,120517040,0.79570006,0.956365787,1.143776838,1.072237498,0.389218616,0.420449215,0.340102929,0.41433686
Africa,GRDC,1159520,DANKBAAR (27817703),-27.355833,27.285556,7103537,120492060,1.85433425,2.290436532,0.880568696,0.810934936,0.409634245,0.360833147,-0.045314581,-0.452413959
Africa,GRDC,1159525,ARRIESRUST,-27.04628,27.00464,7103421,120538632,1.137667732,1.989887284,0.585886275,0.563647184,0.43921143,0.428668706,0.289418265,-0.223396936
Africa,GRDC,1159530,KLIPSPRUIT (27817465),-27.37,26.350556,7103497,120502045,2.721803761,1.510363451,1.242122209,0.860568747,0.225125389,0.402809062,-0.903591873,0.202159826
Africa,GRDC,1159535,KLIPPLAATDRIFT,-27.389722,26.463889,7103514,120546975,1.531160703,1.341070875,0.742550312,0.823166907,0.586492845,0.642365281,0.27930575,0.475117273
Africa,GRDC,1159540,LEEGTE (27817467),-27.560556,26.233333,7103772,120600233,5.556742809,1.746583402,0.613623447,0.453121695,0.104731176,0.183064135,-3.659903233,-0.234441924
Africa,GRDC,1159545,PILGRIMS ESTATE,-27.01011,26.69808,7103262,120615174,1.48793902,1.206894585,0.720021352,0.844123995,0.583089596,0.635317238,0.299795162,0.552678846
Africa,GRDC,1159546,BUFFELSFONTEIN,-26.91606,26.81722,7103198,120495360,1.908573313,0.176123529,8.114296135,4.618456468,0.146572676,0.239288067,-6.222676316,-2.788229441
Africa,GRDC,1159547,HOOGEKRAAL,-26.8805,26.96428,7103152,120545276,1.857672221,0.178725864,10.58339352,3.582629056,0.119299403,0.212205423,-8.661918367,-1.822248101
Africa,GRDC,1159548,WITRAND,-26.64428,27.09033,7103047,120640110,1.794906296,0.238799754,8.412032917,3.536032715,0.105557849,0.150680836,-6.508004712,-1.780688906
Africa,GRDC,1159549,BLAAUWBANK,-26.37022,27.24811,7102878,120560221,2.618097109,0.163584972,20.01967777,5.849161272,0.104254577,0.167350712,-18.10938881,-3.990717381
Africa,GRDC,1159550,DE VAAL,-26.97056,27.20967,7103238,120538625,1.462089964,1.557896763,0.616061479,0.674364559,0.533155537,0.576905044,0.239158574,0.227797578
Africa,GRDC,1159555,WOODLANDS,-26.73828,27.59197,7103080,120548596,1.120546828,0.965234302,0.811593846,1.138998232,0.470423535,0.447446549,0.425126407,0.429172111
Africa,GRDC,1159560,KAALPLAATS,-26.72867,27.718,7103062,120516979,0.464967192,0.077454861,17.51833464,8.732679683,0.127647125,0.202204715,-15.5500042,-6.828275796
Africa,GRDC,1159570,KOOKFONTEIN,-26.619944,27.980528,7103010,120578541,0.060056094,0.453669484,6.988590864,2.168205278,0.414202302,0.384607562,-5.090145649,-0.428946625
Africa,GRDC,1159580,UITVLUGT,-26.67075,28.03044,7103025,120621809,0.510502339,0.313931349,2.98550466,2.56203,0.453000088,0.532576502,-1.116848038,-0.768929801
Africa,GRDC,1159600,DIEP KLOOF,-31.04,26.34,7105560,120405766,0.422946452,1.225438209,1.727273075,1.012499909,0.153158752,0.304946355,-0.256605357,0.269193457
Africa,GRDC,1159601,DIEPKLOOF (27819101),-31.000833,26.353056,7105550,120404102,1.364704572,1.575117331,1.362611276,0.796866774,0.309780859,0.356318014,0.1392452,0.113236474
Africa,GRDC,1159650,ALIWAL NOORD (27819103),-30.678056,26.716389,7105402,120442352,1.292596378,1.321884347,0.675465653,0.738279235,0.669173746,0.655429414,0.451929573,0.460707704
Africa,GRDC,1159651,ORANJEDRAAI (27819109),-30.336389,27.358333,7105286,120512219,1.327354863,1.351294742,0.664465822,0.801260186,0.656226827,0.646506915,0.41868736,0.463471463
Africa,GRDC,1159653,MAGHALEEN,-30.159722,27.401389,7105227,120458959,0.54396462,0.782128931,1.289076118,1.248391487,0.528724337,0.529168301,0.283317351,0.424805579
Africa,GRDC,1159655,LESOTHO - MANTILANE,-30.061861,28.50975,7105099,120492233,2.118779838,1.345343468,0.64586164,0.757248781,0.577259359,0.551997148,-0.247313895,0.384454047
Africa,GRDC,1159660,ROODEWAL (27819111),-30.830556,26.920556,7105507,120375803,1.077799672,1.2337056,0.963479721,0.82847301,0.557892839,0.580255028,0.54961654,0.489876821
Africa,GRDC,1159670,THE POPLARS (27818012),-28.694722,28.234722,7104349,120502128,4.783871331,0.624490537,1.649793383,1.473139745,0.410618222,0.435540657,-2.88423539,0.173269739
Africa,GRDC,1159673,FICKSBURG,-28.883889,27.889444,7104482,120513790,0.539027627,0.536542506,1.500297401,1.509271463,0.525301827,0.553349103,0.170463157,0.179239807
Africa,GRDC,1159675,WILGERDRAAI,-29.616667,27.065556,7104870,120462252,0.972157634,0.741967552,1.447901867,1.350339272,0.440670266,0.465539141,0.282893989,0.310821678
Africa,GRDC,1159800,ELANDSFONTEIN ENGELBRECHTSDRIFT,-26.820222,28.063306,7103167,120638459,2.703326543,2.76270918,0.789327574,0.902047858,0.191872653,0.15608702,-0.897043487,-0.956764522
Africa,GRDC,1159805,FRANKFORT,-27.271667,28.491111,7103436,120606872,0.87790708,0.865541601,1.022788588,0.977124948,0.501614874,0.497790091,0.486371988,0.479599076
Africa,GRDC,1159810,SLABBERTS (27817822),-27.298333,28.495556,7103453,120606874,0.959122632,0.787538813,1.146902561,1.194246972,0.576870161,0.604261338,0.550233191,0.510632316
Africa,GRDC,1159811,FREDERIKSDAL,-27.430833,28.526389,7103650,120590241,0.302265104,0.402866984,2.833180223,2.607657383,0.293509753,0.286811953,-1.084829054,-0.857354918
Africa,GRDC,1159813,BALLINGTOMP,-27.301389,28.585556,7103463,120541977,1.070751481,1.148862317,0.947437847,0.933143378,0.624743654,0.633118297,0.614531613,0.598462976
Africa,GRDC,1159815,BAVARIA,-27.802778,28.7675,7103770,120616889,1.075641907,0.901879893,1.163814117,1.104401761,0.588496581,0.589412952,0.550676256,0.565133346
Africa,GRDC,1159820,C8H003 (27817803),-27.847778,28.945,7103808,120601916,1.380706083,1.994375455,0.798590477,0.686262152,0.486794154,0.460268314,0.330012569,-0.174105735
Africa,GRDC,1159825,VOORSPOED (27817812),-28.085,28.836667,7103956,120472139,1.088332929,0.865678486,1.19718881,1.160873882,0.332862661,0.398811871,0.298745151,0.363329095
Africa,GRDC,1159830,C8H005 (27817805),-28.375556,28.861667,7104258,120467167,2.051773473,2.044229165,0.538725024,0.597474792,0.392687486,0.394469269,-0.299165321,-0.272441967
Africa,GRDC,1159850,RIETFONTEIN (27817428),-26.248056,27.589444,7102972,120340564,17.21848773,0.710776142,2.490846165,2.622725878,0.206396662,0.184152712,-15.30618817,-0.839156468
Africa,GRDC,1159855,MIDDELVLEI (27817427),-26.233611,27.651944,7102797,120313938,551.0639207,5.286014407,0.662521133,0.425515174,0.041314938,0.054284835,-549.0648597,-3.426548259
Africa,GRDC,1159860,MIDDELVLEI (27817426),-26.232778,27.668611,7102797,120313938,57.31531855,0.74561128,2.002360882,1.687589659,0.06208763,0.055924185,-55.33204692,-0.195312638
Africa,GRDC,1159880,NOOITGEDACHT,-27.00231,28.76528,7103279,120520325,0.865160584,1.399583985,0.639596575,0.732610814,0.602296357,0.664832782,0.446610007,0.413910073
Africa,GRDC,1159890,GOEDGELUK,-26.84108,29.72336,7103147,120548604,0.543267898,0.737206288,1.42874813,1.326209407,0.450649848,0.504272634,0.166804488,0.350986338
Africa,GRDC,1159900,DELANGESDRIFT,-27.169444,29.233056,7103408,120536977,1.369064617,1.494347475,0.541561822,0.588541137,0.493138243,0.535243165,0.223286993,0.206478269
Africa,GRDC,1159910,ELANDSLAAGTE (27817908),-26.861389,28.884444,7103187,120528636,0.706576212,1.196326572,0.778389177,0.822226742,0.382763107,0.406453663,0.281536181,0.350042533
Africa,GRDC,1160091,CITRUSDAL,-32.596389,19.008333,7106385,120360942,0.064936813,0.632668553,1.627962925,1.537065563,0.704360374,0.734591383,-0.164509934,0.297281319
Africa,GRDC,1160095,VISGAT,-33.088833,19.218778,7106385,120246157,0.764754387,0.581067182,1.362394127,1.52135213,0.64796371,0.668333734,0.442685411,0.253464494
Africa,GRDC,1160101,SWARTE WATER (27694408),-34.062222,19.072222,7106685,120124745,1.332512041,0.933213341,1.011547067,1.108705863,0.434052699,0.448663937,0.343498713,0.43409464
Africa,GRDC,1160102,REENEN,-34.078889,20.144167,7106685,120182988,0.298055222,1.536134471,0.588250396,0.609795473,0.295800168,0.43921568,-0.076179173,0.131565317
Africa,GRDC,1160110,LEBANON FOREST RES. (27711209),-34.166111,19.1325,7106688,120078163,43.71465833,1.509637767,1.173449886,0.777056487,0.370684084,0.413002148,-41.71964606,0.191296753
Africa,GRDC,1160111,LEBANON FOREST RES. (27711208),-34.153611,19.135556,7106688,120094801,21.28128179,0.817525893,1.59786966,1.161780393,0.57793046,0.57128291,-19.29448156,0.506777901
Africa,GRDC,1160113,FARM 562-WELGEMOED,-34.329444,18.988333,7106696,120099801,0.130404457,0.645159275,1.671405885,1.501465327,0.645051935,0.705224164,-0.154543372,0.318624767
Africa,GRDC,1160115,HAGEDISBERG OUTSPAN (27711206),-34.405278,19.595833,7106706,120048223,0.237273993,0.48790796,5.119534106,1.73298232,0.263670237,0.585819598,-3.253762303,0.014582959
Africa,GRDC,1160120,KYKOEDY (27711108),-34.291667,20.022778,7106702,120074842,1.319788686,0.912187076,1.616785473,0.999585118,0.517075175,0.583212364,0.153888004,0.574061958
Africa,GRDC,1160200,BRUINTJIESHOOGTE (27713201),-30.823889,18.1175,7105467,120493944,13.77558487,5.394777965,0.366637726,0.343869152,0.143005189,0.129150441,-11.81995151,-3.528019435
Africa,GRDC,1160210,JONKERSHOEK (27711308),-33.986389,18.955556,7106666,0,1.522961565,0.900538246,1.459123992,1.202131707,0.441797674,0.480959773,0.107882589,0.434179689
Africa,GRDC,1160220,LEEUW (27712207),-32.780278,19.283056,7106272,120251128,0.279098739,0.723092466,1.281080912,1.386217227,0.691812484,0.755909615,0.167122667,0.465751327
Africa,GRDC,1160230,CLANWILLIAM (27712306),-32.211667,18.936667,7106053,120299347,0.106112276,0.573748607,1.428896674,1.732250206,0.669802747,0.723162201,-0.044996577,0.108641609
Africa,GRDC,1160235,MELKBOOM,-31.8625,18.68639,7105910,120354237,0.513157201,1.21269047,0.761473973,0.879722915,0.561747313,0.622860213,0.302880216,0.55062462
Africa,GRDC,1160240,MOUNTAIN VIEW (27711421),-33.184722,19.155278,7106474,120187923,0.670497187,0.36107075,3.430135347,2.58573138,0.480056228,0.544781457,-1.506884807,-0.769180183
Africa,GRDC,1160245,DRI-DAS-BOSCH (27711428),-33.134444,19.060556,7106436,120247823,0.130442703,1.625114569,0.495679632,0.61453735,0.26104446,0.223605435,-0.247607397,-0.06870866
Africa,GRDC,1160250,MALMESBURY (27711312),-33.463889,18.740278,7106584,120219555,2.497856628,1.419138127,0.684539966,0.747662563,0.570368403,0.597183717,-0.589865661,0.366271423
Africa,GRDC,1160255,KLIPPHEUWEL (27711313),-33.705,18.699722,7106587,120217908,1.746695235,0.894399562,0.819022146,1.098251065,0.638147264,0.67096401,0.15073905,0.640737691
Africa,GRDC,1160256,ADDERLEY,-33.722778,18.616667,7106643,120217909,1.266594404,0.91635045,0.703272345,1.093058177,0.642232355,0.72676518,0.464166476,0.69947656
Africa,GRDC,1160263,DALJOSAFAT,-33.707778,18.991111,7106644,120209597,0.361003232,0.942570395,1.090849989,1.085361425,0.663666109,0.677902474,0.272201211,0.661870515
Africa,GRDC,1160265,NIEUWKLOOF (27711408),-33.313889,19.074444,7106477,120256155,0.359159493,0.809834645,1.406447422,1.381931822,0.693909198,0.681025271,0.18172887,0.46729027
Africa,GRDC,1160266,DRIEHEUVELS,-33.130833,18.862778,7106416,120297743,0.413151894,0.834383623,1.206165039,1.183041439,0.800282624,0.824334926,0.346714647,0.697029422
Africa,GRDC,1160270,WATERVALSBERGE (27711412),-33.352222,19.100278,7106479,120221213,0.613395413,0.446865968,2.620258978,2.14885133,0.586276777,0.652839481,-0.716353451,-0.32149047
Africa,GRDC,1160271,WATERVALSBERGE (27711411),-33.379444,19.149444,7106479,120221213,0.590703047,0.504989309,2.061951907,1.860377201,0.579783404,0.622287097,-0.213197361,-0.062050634
Africa,GRDC,1160275,KNOLVLEI BOS RES. (27711410),-33.388056,19.159167,7106554,120184607,301.5081938,2.910365915,0.414298598,0.408854349,0.535863535,0.45790708,-299.509123,-1.071911157
Africa,GRDC,1160276,KNOLVLEI BOS RES. (27711409),-33.390556,19.171389,7106479,120184607,20.76006297,1.833362544,0.68930441,0.635873736,0.524848405,0.485081003,-18.76821665,-0.04509456
Africa,GRDC,1160280,ZACHARIASHOEK (27711414),-33.8275,19.034722,7106644,0,102.2179487,1.201643784,1.180878056,0.906075352,0.651395648,0.658370347,-100.2187106,0.592332396
Africa,GRDC,1160281,ZACHARIASHOEK (27711417),-33.826389,19.027778,7106644,0,175.7705233,1.475502008,1.326383446,0.792266386,0.611377412,0.552470939,-173.7712601,0.314771808
Africa,GRDC,1160285,LOWER ZACHARIASHOEK (27711416),-33.821944,19.058889,7106644,0,44.61355286,1.013056697,1.071618843,1.029859802,0.642624663,0.639481352,-42.61507583,0.638011353
Africa,GRDC,1160286,UPPER ZACHARIASHOEK (27711415),-33.815278,19.061111,7106644,0,71.11960225,0.991918398,1.167000774,1.02203915,0.626929557,0.623570184,-69.12079357,0.622838969
Africa,GRDC,1160287,ZACHARIASHOEK (27711418),-33.8225,19.046389,7106644,0,54.482434,1.067442732,1.009742938,0.962547411,0.610329565,0.613291597,-52.48385443,0.605671955
Africa,GRDC,1160290,JONKERSHOEK (27711419),-33.9125,18.943889,7106644,120186305,7.788093185,0.938834902,1.278695486,1.133817903,0.570203354,0.580027189,-5.807393438,0.554999369
Africa,GRDC,1160295,LE MOUILLAGE (27711403),-33.890556,19.078889,7106644,120159680,5.177544815,0.918930976,1.468340274,1.312855873,0.6678131,0.681376875,-3.216820062,0.546158971
Africa,GRDC,1160300,CERES TOEKEN GEB.,-33.380556,19.301389,7106576,120276127,1.297509988,1.226744137,1.147870069,1.085002153,0.73735037,0.73390486,0.576487806,0.64021549
Africa,GRDC,1160301,CERES TOEKEN GEB.,-33.421667,19.266944,7106576,120262817,0.491279389,0.999476328,1.005475928,0.995944006,0.676218241,0.670770441,0.396956657,0.670745042
Africa,GRDC,1160303,WOLVENDRIFT,-33.897778,20.011667,7106668,120207936,0.444526769,1.165734245,0.86801366,0.925984335,0.769958851,0.777075171,0.384459722,0.712525414
Africa,GRDC,1160304,LE CHASSEUR,-33.818056,19.693333,7106636,120214585,0.329283973,0.936174029,1.014569506,1.083498075,0.814599645,0.833181883,0.303978771,0.802835178
Africa,GRDC,1160305,SWELLEN DAM,-34.0675,20.405556,7106676,120161355,0.403439242,1.040181794,0.996312718,1.001601739,0.7844609,0.800487627,0.365685064,0.796475237
Africa,GRDC,1160310,CERES (27694913),-33.359444,19.298056,7106489,120276127,1.293795785,0.839316162,1.366000213,1.32524364,0.563044374,0.584726411,0.358749395,0.448588289
Africa,GRDC,1160315,ROODE ELS BERG (27694805),-33.461667,19.617222,7106545,120242852,1.763910971,0.547614418,2.053699799,1.916970947,0.614162013,0.628451535,-0.357466092,-0.087904727
Africa,GRDC,1160317,DROSTERSKLOOF (27694907),-33.568333,19.144722,7106576,120214571,0.816653813,0.911870134,1.086934015,1.01827476,0.519755465,0.520119008,0.478647757,0.511751491
Africa,GRDC,1160320,ELANDS DRIFT - ASPOORT (27712202),-32.502778,19.535,7106160,120339302,0.526000872,1.013040515,0.95892258,1.124417145,0.646715019,0.705506153,0.407401649,0.680037022
Africa,GRDC,1160324,LANGEVALLEY (27694705),-33.763889,19.850833,7106632,120119735,78.36621268,2.729853972,0.470677514,0.523497497,0.055615104,0.055407902,-76.37378696,-1.027733619
Africa,GRDC,1160325,HOEKSBERG (27694709),-34.010278,19.837778,7106560,120031561,17.43981404,3.507853355,0.521819814,0.42429811,0.215529934,0.196465117,-15.46546493,-1.695631545
Africa,GRDC,1160327,POESJENELS RIVER (27694712),-33.954167,19.587222,7106648,120111427,10.55441829,1.969714354,0.640149811,0.806187231,0.457804454,0.486929574,-8.576553508,-0.114069378
Africa,GRDC,1160328,WAGGENSBOOMS KLOOF (27694410),-33.983333,19.329167,7106685,120096453,41.78101925,2.205471548,0.556613296,0.534027593,0.28286614,0.287786974,-39.78973405,-0.475648783
Africa,GRDC,1160330,TWEEKUILEN (27711501),-32.601667,18.749444,7106191,120317677,0.507661194,0.54957165,2.0201253,1.74003852,0.330306196,0.385005902,-0.315881043,-0.062431386
Africa,GRDC,1160331,TWIST NIET (27694406),-33.964722,19.291389,7106685,120116419,2.985076836,0.81179747,1.803846402,1.522885094,0.467346381,0.555111916,-1.206902572,0.288133144
Africa,GRDC,1160332,PURGATORY UITSPAN (27694407),-33.938611,19.170556,7106685,120119755,2.05546805,0.830367382,1.170183177,1.299685546,0.547729864,0.565711471,-0.160828753,0.445749895
Africa,GRDC,1160340,NEW GLEN HEATLIE (27694801),-33.562222,19.51,7106590,120244522,0.46098987,0.657360843,1.471635405,1.508010073,0.634412303,0.650879663,0.195869264,0.294761859
Africa,GRDC,1160341,GOLD MINE,-33.871667,20.002222,7106642,120217917,0.919834396,0.374347287,3.924403457,2.641002928,0.281196398,0.332058122,-2.01251402,-0.8789567
Africa,GRDC,1160345,KEISIESDOORNS (27694605),-33.708889,20.058333,7106620,120172980,5.359920442,1.982462084,0.431992048,0.501959353,0.363051508,0.494538758,-3.442661666,-0.211927102
Africa,GRDC,1160346,HARMONIE (27694604),-33.696389,19.928056,7106620,120161331,12.90962117,1.828379038,0.501612691,0.536475566,0.275228761,0.310781327,-10.94205843,-0.173068246
Africa,GRDC,1160347,DWARS IN DIE WEG (27694708),-33.596389,19.761944,7106602,120211245,31.44242683,2.29117284,0.507335491,0.616257541,0.233128383,0.186143143,-29.45606938,-0.573768904
Africa,GRDC,1160348,DIE KOO (27694707),-33.638611,19.813611,7106602,120181296,64.45176768,3.114264808,0.436917687,0.436504422,0.236111948,0.181652491,-62.45886391,-1.336094089
Africa,GRDC,1160350,ZANDFONTEIN,-33.571944,20.701944,7106560,120262827,1.128553052,1.219854167,0.767240595,0.805614643,0.217200697,0.249856779,0.173272973,0.194496198
Africa,GRDC,1160351,FARM 162 (27692705),-33.945278,22.614167,7106655,120174656,0.269990559,0.555875895,2.509416765,1.702723054,0.448311843,0.521408009,-0.765109792,0.040773121
Africa,GRDC,1160352,OKKERSKRAAL,-33.693889,21.143056,7106604,120247858,3.271462386,2.438574491,0.135503136,0.193627131,0.211498865,0.265418096,-1.555118439,-0.805365432
Africa,GRDC,1160353,BUFFELSFONTEIN,-33.749167,21.444444,7106615,120239542,1.947049847,2.366422678,0.29798964,0.448337035,0.446335989,0.575134426,-0.302407692,-0.533608071
Africa,GRDC,1160360,LOT B (27693215),-33.354167,19.719167,7106486,120174621,1.866824619,0.605061778,1.489578883,1.687542414,0.274346247,0.297292053,-0.231927665,-0.059475922
Africa,GRDC,1160361,VERLORENVALLEY (27693216),-33.288056,19.727222,7106486,120214552,2.782319678,1.403948126,0.721349573,0.75393625,0.327842079,0.330752378,-0.92512487,0.180479508
Africa,GRDC,1160365,ZOAR (27693405),-33.489444,21.489167,7106538,120246182,1.08245047,0.890104723,1.137501184,1.011970058,0.453656034,0.562480643,0.430617541,0.548731297
Africa,GRDC,1160367,OPZOEK (27693406),-33.489444,21.489444,7106538,0,7.773111621,0.894179363,1.169257654,1.067983237,0.347339064,0.404704641,-5.806589122,0.391562417
Africa,GRDC,1160368,OPZOEK (27693407),-33.491944,21.514167,7106615,120064803,89.39376122,1.252717222,1.113141287,0.897314303,0.317552202,0.415414315,-87.39646803,0.354902511
Africa,GRDC,1160370,WEYERS RIVER (27693103),-34.030833,21.586389,7106671,120173000,18.80063857,1.217626502,0.96120143,0.835900405,0.166623787,0.176427361,-16.8201783,0.132496765
Africa,GRDC,1160373,ZEEKOEDRIFT,-33.980278,21.653333,7106671,120184645,3.153383799,3.036124066,0.232633785,0.280488709,0.270381591,0.331150316,-1.39963658,-1.260720596
Africa,GRDC,1160375,LANGFONTEIN (27693104),-33.9875,21.759722,7106670,120176326,0.138122847,0.643897839,1.489031778,1.643101661,0.294033139,0.353175738,-0.216706011,0.020831924
Africa,GRDC,1160376,HUIS RIVER,-33.502222,21.622778,7106550,120264487,1.992037208,1.047895841,0.687545665,0.870693592,0.486035969,0.556986843,-0.160139887,0.536022828
Africa,GRDC,1160378,SPEK BOOM BERG,-33.31,21.634167,7106537,120307738,2.138610801,2.062507142,0.263887713,0.28287181,0.221731821,0.233777654,-0.563328888,-0.493415867
Africa,GRDC,1160380,PARDEKLOOF (27693304),-33.476944,23.029444,7106548,120312741,2.132110676,0.88819213,0.680790962,0.734197827,0.208171614,0.268977048,-0.417942589,0.214158826
Africa,GRDC,1160385,WILGEHOUTE RIVER (27693316),-33.545278,22.973889,7106548,120194602,34.76295188,1.171392596,0.806353747,0.766527937,0.421824082,0.466973478,-32.76845726,0.393368399
Africa,GRDC,1160390,DE RUST (27693312),-33.475556,22.547778,7106547,120291109,1.088984318,1.140583004,1.160642326,0.980864399,0.434199168,0.531675845,0.405143086,0.510656291
Africa,GRDC,1160391,WARM WATER,-33.66,21.773056,7106582,120296113,7.122887167,2.954750054,0.48169099,0.369968097,0.222830565,0.564299435,-5.193737468,-1.099481592
Africa,GRDC,1160393,PAARDENDRIFT (27693317),-33.679167,22.14,7106613,120237875,0.611126266,0.911036363,1.371726312,0.972851266,0.483340559,0.599365896,0.254117832,0.588710239
Africa,GRDC,1160395,GROENEFONTEIN (27693313),-33.368056,22.179167,7106565,120202910,0.71148449,0.277641704,3.684355403,3.396753793,0.451563724,0.43901194,-1.754956893,-1.565333868
Africa,GRDC,1160396,KOETZERS KRAAL (27693318),-33.4675,22.000556,7106562,120207906,0.664780281,0.457475367,2.423755311,1.928847229,0.482283964,0.521169462,-0.551606052,-0.177441649
Africa,GRDC,1160398,VOGELFONTEIN (27693320),-33.460833,21.960278,7106562,120191267,2.716881573,1.385752112,0.714068134,0.762701489,0.435260758,0.514986924,-0.829855126,0.336409043
Africa,GRDC,1160400,KNOETZE KAMA (27692703),-34.006667,22.350278,7106664,120168007,0.091745916,0.649255315,1.678965195,1.35826176,0.491884656,0.534029236,-0.242618373,0.315527885
Africa,GRDC,1160403,WOLVEDANS,-34.028611,22.221944,7106663,120159689,0.115884803,0.765676956,2.086871327,1.310077115,0.361299618,0.394124204,-0.539768535,0.280180171
Africa,GRDC,1160410,PINE GROVE FOREST (27692902),-33.935278,22.130556,7106674,120113093,1.336107231,0.515850833,1.810240449,1.355694025,0.302795291,0.411043176,-0.120514195,0.158698154
Africa,GRDC,1160417,BRANDWACHT,-34.031667,22.052778,7106673,120163016,0.175030706,0.319384081,3.190829775,2.411257274,0.396733623,0.468230726,-1.417486248,-0.654588675
Africa,GRDC,1160419,BANFF,-34.039444,22.132222,7106674,120179657,0.118374137,0.258460508,3.775808285,2.843311667,0.363005267,0.42949151,-1.981298054,-1.067161981
Africa,GRDC,1160425,WOODVILLE FOREST RES. (27692603),-33.9125,22.707778,7099917,120192961,7.027750026,1.182392696,0.961268841,0.924864692,-0.011246512,0.0027287,-5.112110109,-0.016593555
Africa,GRDC,1160427,KARATARA FOREST RES. (27692602),-33.880556,22.837778,7106660,120148031,1.027789195,0.503579539,2.979647648,1.741620789,0.366989442,0.408894822,-1.078576295,-0.070439163
Africa,GRDC,1160430,MILWOOD FOREST RES. (27692502),-33.890833,23.029167,7106659,120239551,0.477232065,0.534691299,2.571237861,1.760877458,0.499464737,0.617714809,-0.729916264,0.029645086
Africa,GRDC,1160435,GOUNA COMMONAGE CON. (27692501),-33.991111,23.041944,7106659,120179654,1.381624432,0.415929437,2.728496386,1.027451015,0.09209028,0.366947789,-0.989381066,0.138230261
Africa,GRDC,1160441,MKAMA (27692401),-33.803333,23.135278,7106651,120161337,1.993916145,1.260516467,0.832750085,0.777204159,0.527077389,0.549230823,-0.113327281,0.433696489
Africa,GRDC,1160443,NEWLANDS,-33.945833,23.3675,7106658,120212930,0.310916971,0.374220718,2.235757533,2.071950741,0.613517806,0.688793022,-0.46673126,-0.279659284
Africa,GRDC,1160450,WELGELEGEN (27691302),-33.737778,23.304167,7106624,120167990,3.640834878,1.403660059,0.728181806,0.811677586,0.364335372,0.369322724,-1.729828475,0.22788563
Africa,GRDC,1160453,STUURMANSKRAAL,-33.791944,24.032778,7106638,120219578,0.676371051,0.608169614,1.20012291,1.510402286,0.601488286,0.680329532,0.449004118,0.281508001
Africa,GRDC,1160457,DIEPKLOOF (27691301),-33.865556,23.835556,7106626,120141374,0.88964605,0.686962789,1.551532251,1.378581402,0.365521753,0.425948769,0.152103506,0.244453186
Africa,GRDC,1160459,GEELHOUTBOOM,-34.096639,24.439111,7106682,120143052,0.076273732,0.299950973,3.266685806,2.963488759,0.590937194,0.688148078,-1.481625906,-1.107749597
Africa,GRDC,1160460,GROOTRIVIERSPOORT (27691206),-33.730833,24.617778,7106610,120294451,1.609696052,3.657042903,0.362067988,0.292339026,0.346300037,0.399194704,-0.098184943,-1.814538692
Africa,GRDC,1160470,CAMPHERSPOORT (27691501),-33.203611,24.234167,7106462,120336018,0.867357438,6.903231796,0.883235767,0.6812244,0.145671884,0.132266511,0.127586987,-4.975175723
Africa,GRDC,1160481,KLIPKRAAL (27691902),-32.068889,23.0075,7106070,120327626,0.457559522,3.832070725,0.294176057,0.338337723,0.131839903,0.11666957,-0.243435187,-2.039522036
Africa,GRDC,1160485,UITENHAGE,-33.771917,25.386389,7106640,120252856,0.367109079,1.357941609,0.757687443,0.800614949,0.557866076,0.59275468,0.190834566,0.422310339
Africa,GRDC,1160487,WINTCANTON (27683204),-33.797222,25.308889,7106625,120209594,0.205845346,1.037724648,0.577428736,0.842240783,0.636278415,0.577325517,0.029669397,0.547269575
Africa,GRDC,1160490,RIET VLEY (27682302),-33.000278,25.164167,7106402,120352646,1.895244336,2.403195378,0.305979339,0.575936477,0.437272439,0.471153467,-0.264827817,-0.558353553
Africa,GRDC,1160493,DE DRAAY,-33.099306,25.0115,7106396,120279435,7.863769357,2.507270898,0.38436029,0.432012885,0.261548579,0.279715557,-5.930775753,-0.764450227
Africa,GRDC,1160495,VOLKERS RIVER (27682209),-33.1075,25.228333,7106426,120282765,0.036568648,0.176482414,8.833558703,3.937949774,0.124665719,0.116331294,-6.94097299,-2.176570552
Africa,GRDC,1160500,DONKER HOEK ALICEDALE,-33.329167,26.0775,7106585,120291099,1.773416518,1.747881158,0.703095826,0.610083112,0.33279486,0.478208475,-0.0637142,0.008219882
Africa,GRDC,1160505,SMITHFIELD,-33.552306,26.601806,7106583,120269482,0.46372001,1.460491972,0.754015036,0.92264031,0.31055755,0.4130586,0.092566409,0.249974944
Africa,GRDC,1160510,BRANDT LEGTE PIGGOT'S BRIDGE,-33.098056,26.444722,7106408,120404236,1.362265382,2.334524303,0.729848562,0.850006956,0.194221154,0.16003948,0.076150686,-0.583978126
Africa,GRDC,1160511,KATKOP (27673901),-31.903056,25.481667,7105982,120404160,0.174359646,0.289421126,12.71010848,8.839134905,0.06591239,0.060828007,-10.77628304,-6.927105552
Africa,GRDC,1160512,ZOUTPANSDRIFT (27673802),-31.904167,25.430556,7105933,120377537,3.657127432,2.390544402,0.411340257,0.496535806,0.23170212,0.314148783,-1.827919397,-0.630178463
Africa,GRDC,1160520,JAN BLAAUWS KOP (27673912),-31.57,25.543889,7105806,120372522,0.017424423,0.158963647,16.42416126,4.522923759,0.032472989,0.053666552,-14.48568093,-2.743511847
Africa,GRDC,1160523,ZEEVEN FONTEIN,-31.7775,25.3175,7105872,120355896,19.48722543,4.382019293,0.17891542,0.209900995,0.082619977,0.083993214,-17.52817503,-2.591849018
Africa,GRDC,1160525,COUTZENBURG (27673704),-32.385556,25.520556,7106175,120330953,2.190978681,0.886623137,1.363431143,1.17193398,0.431188705,0.520209894,-0.368962637,0.477875347
Africa,GRDC,1160527,DOORN KRAAL,-32.785,25.614833,7106382,120362614,2.521826698,2.217886665,0.35517168,0.495245669,0.297160038,0.276714144,-0.796035655,-0.503717823
Africa,GRDC,1160528,RIETFONTYN,-32.085833,25.575833,7106006,120359243,0.28321041,0.398761394,5.300226544,2.939215032,0.248833874,0.222391636,-3.423797711,-1.174101555
Africa,GRDC,1160529,BRIDGE FARM,-32.314194,25.741111,7106080,120374234,3.098968342,1.552744611,0.749907652,0.693651219,0.066900524,0.064406392,-1.310603582,-0.129031257
Africa,GRDC,1160530,BOTMANSGAT (27673403),-32.605833,25.884444,7106214,120330989,2.412557574,2.180167451,0.37817262,0.509845899,0.371158974,0.490912081,-0.666562098,-0.375578701
Africa,GRDC,1160533,SOUT VLEIJ,-33.027639,25.893306,7106386,120374280,1.173117285,0.790364345,1.714114098,1.393300021,0.299982457,0.314769601,-0.01486605,0.182581677
Africa,GRDC,1160535,ROBERTS KRAAL (27673603),-31.968333,26.001111,7106014,120377540,1.77736813,2.725732093,1.230124304,0.739087032,0.355131409,0.370592603,-0.035912112,-0.855365329
Africa,GRDC,1160537,FORT BEAUFORT,-32.761444,26.628861,7106347,120337654,2.104534508,1.351326489,0.60845315,0.826219487,0.296914794,0.395404694,-0.366614146,0.279468631
Africa,GRDC,1160540,KAP RIVER MOUNTAINS (27673113),-33.355278,26.861389,7106530,120226205,0.722550835,0.388380487,1.555153496,2.111979462,0.285514788,0.597286683,0.053605493,-0.331448372
Africa,GRDC,1160545,BATHURST (27681101),-33.506667,26.744167,7106561,120276134,0.268865153,1.475972768,0.595224255,0.583441447,0.258394481,0.295788362,-0.117309408,0.053435087
Africa,GRDC,1160550,WHITTLESEA,-32.180833,26.820556,7106073,120314322,1.990486553,1.933607606,0.86172847,0.834497525,0.192907642,0.211247387,-0.285138399,-0.233347038
Africa,GRDC,1160580,MATOLEMA'S LOCATION OUTSPAN,-33.237778,26.994722,7106528,120292758,1.322194514,1.464010588,0.718694149,0.71911401,0.291575152,0.347327673,0.172468701,0.151363486
Africa,GRDC,1160600,FARM 7,-33.185278,27.390556,7106467,120346002,0.663175681,1.122691306,0.997653722,0.896711981,0.269013037,0.394619986,0.195140964,0.373736051
Africa,GRDC,1160601,KAMAS LOC. (27672413),-33.011667,26.954167,7106375,120284423,0.578042416,1.184872594,1.272975775,0.883652399,0.216643941,0.277413102,0.069295594,0.245118244
Africa,GRDC,1160602,ZANYOKWE (27672405),-32.751667,27.090278,7106317,120329334,1.419463393,0.813256177,1.853663867,1.454322273,0.335696846,0.472435523,-0.160168184,0.279162806
Africa,GRDC,1160610,MSENGE RIDGE (27672206),-32.858333,27.370556,7106328,120292732,2.47337869,0.790823603,1.470213998,1.25717523,0.312777466,0.399293197,-0.692400892,0.31389321
Africa,GRDC,1160611,SHESHEGU (27672209),-32.915278,27.386111,7106328,120329345,7.424696984,1.225102791,1.001132241,0.866831816,0.269985328,0.437027613,-5.466038512,0.379240031
Africa,GRDC,1160612,JEFTAS LOC 29 (27672212),-32.786944,27.262778,7106328,120227834,6.790885824,0.725585119,1.729200082,1.527834518,0.317745223,0.355628575,-4.876356266,0.123000947
Africa,GRDC,1160615,BRAUNSCHWEIG (27672208),-32.767778,27.372778,7106328,120219509,5.3357707,1.407201535,1.075484598,0.921053053,0.260659762,0.308336325,-3.399003237,0.193498698
Africa,GRDC,1160617,MHLABATI,-32.991639,27.640028,7106356,120282757,0.63631254,0.555626282,2.002402629,1.646119398,0.326514251,0.428680924,-0.261214753,0.029771283
Africa,GRDC,1160620,GOUMAHASHE LOC. (27672401),-32.759444,26.854722,7106316,120297718,0.319594203,0.326498966,0.882852832,1.342365762,0.172569374,0.137335325,-0.077644166,-0.146738113
Africa,GRDC,1160621,KWA KHAYALETU (27672414),-32.64,26.935833,7106316,120204526,0.89727344,0.405102642,2.642259371,2.190127604,0.265474712,0.396615587,-0.801970029,-0.460951515
Africa,GRDC,1160625,BLINKWATER (27673117),-32.701944,26.575833,7106248,120281075,1.973236844,1.409365969,0.870821599,0.927036692,0.346606868,0.383650059,-0.179321668,0.256500578
Africa,GRDC,1160630,ADELAIDE (27673102),-32.713333,26.295833,7106250,120322676,2.108864603,3.711150478,0.497892534,0.45772897,0.392963179,0.456697361,-0.360215541,-1.81772471
Africa,GRDC,1160631,SCHURFTEKOP (27673116),-32.499167,26.365,7106222,120314342,3.277902007,1.745547803,0.440572851,0.847343674,0.461601773,0.587430827,-1.406588652,0.134344871
Africa,GRDC,1160635,GREY KIRK (27673119),-32.553611,26.670833,7106249,120257769,5.370654023,1.068504022,1.25941515,1.255370265,0.416044636,0.432408498,-3.417116331,0.373847553
Africa,GRDC,1160640,KING WILLIAMS TOWN (27672205),-32.875278,27.382778,7106328,120299389,0.779473931,1.100908704,1.287568411,1.232960728,0.326545144,0.383879693,0.235232858,0.333623605
Africa,GRDC,1160641,PIRIE MAIN FOR. RES. (27672201),-32.731667,27.293333,7106328,120186229,2.791204503,0.328579204,3.22171329,2.586001486,0.337000512,0.407254313,-1.929845019,-0.821415397
Africa,GRDC,1160650,GUNDRIFT (27663201),-30.734167,29.828611,7105544,120410740,0.715357763,0.887292197,2.306181459,1.406468002,0.483252974,0.464669208,-0.43323365,0.318458847
Africa,GRDC,1160660,OUTSPAN (27672101),-32.801667,27.855278,7106325,120311033,0.830456049,1.185496033,0.998708631,0.886446652,0.277811876,0.323269691,0.25817623,0.289178608
Africa,GRDC,1160670,HAMMERHEAD (27711202),-32.575556,27.6225,7106198,120324332,1.491666731,1.656314131,0.861022863,0.766481167,0.469213068,0.539355585,0.263260164,0.164851774
Africa,GRDC,1160671,STUTTERHEIM (27711201),-32.579167,27.365833,7106198,120251116,1.825562693,0.905138827,1.490413573,1.268881251,0.364837767,0.399083497,-0.151299394,0.334871131
Africa,GRDC,1160675,FORKROAD (27711203),-32.516111,27.523611,7106174,120340967,1.120770391,0.721146957,1.672685652,1.450104439,0.35899034,0.423838115,0.062991538,0.217494061
Africa,GRDC,1160680,FP 1609030 THE BANKS (27663104),-29.776944,29.470556,7105023,120475575,1.676512392,1.126769346,0.792679616,0.967312355,0.730226818,0.695858814,0.242749495,0.668879463
Africa,GRDC,1160682,BEZWENI,-30.247333,29.929083,7105270,120498901,1.8417161,1.317526002,0.793910393,0.946752927,0.656115303,0.650015935,0.06768267,0.524450992
Africa,GRDC,1160684,AREA 8 SPRINGS B,-32.51639,28.01806,7106167,120385895,1.14026694,0.969904536,1.01850832,0.986977848,0.417226941,0.461874532,0.400298565,0.460876329
Africa,GRDC,1160685,COXHILL (27663103),-29.747222,29.538889,7105018,120365748,2.438395755,1.276694851,0.753436734,0.797615584,0.69255548,0.64613757,-0.491408035,0.507315404
Africa,GRDC,1160687,DRONKVLEI (27663105),-29.988056,29.851667,7105105,120335812,0.846652436,0.914155044,2.326684349,1.484674787,0.628129203,0.555683517,-0.386324179,0.336904123
Africa,GRDC,1160688,NOOITGEDACHT (27663102),-30.403611,29.894444,7105273,120467296,0.971706236,0.587800035,1.657116742,1.39092254,0.485036415,0.509200439,0.16466148,0.249258066
Africa,GRDC,1160690,CATHCARTS GIFT (27711504),-32.050278,26.789722,7106008,120354249,1.829882261,2.572129174,0.823949128,0.692106226,0.243301504,0.301927439,-0.136789818,-0.747482194
Africa,GRDC,1160693,HOTFIRE,-32.173778,27.372306,7106045,120339282,1.466793084,1.147116988,0.759985854,0.876105353,0.219427865,0.394224599,0.059364347,0.364423782
Africa,GRDC,1160695,WYK MADUMA,-32.044306,27.822389,7106003,120370889,1.788337566,1.30721721,0.895501509,0.774883982,0.399221027,0.423081795,0.003339864,0.30870104
Africa,GRDC,1160700,LOT93.1821 CAMDEN (27662505),-29.743611,29.904722,7104933,120460597,1.185913496,1.091382726,0.83181985,0.901361289,0.642690965,0.636109673,0.563516165,0.612061128
Africa,GRDC,1160701,DELOS ESTATE (27662506),-30.168889,30.696944,7105169,120502224,1.08851262,1.045319175,1.035574587,1.017836873,0.67280585,0.685055428,0.659183265,0.681311962
Africa,GRDC,1160703,SHOZI,-30.135611,30.673722,7105169,120463951,1.07481513,0.871174078,1.057462111,1.062616775,0.724733222,0.752430495,0.709017188,0.713979654
Africa,GRDC,1160704,UMLAAS,-29.803946,30.515871,7105029,120463929,1.894356277,0.738661561,1.446128727,1.480994605,0.5578313,0.61621181,-0.092893934,0.331459078
Africa,GRDC,1160705,BEAULIEU ESTATE (27661907),-29.862222,30.244167,7105097,120385725,2.839446008,0.73349162,3.268510028,2.087368475,0.615080909,0.413699877,-1.94582112,-0.263781924
Africa,GRDC,1160708,HIGHLANDS (27661901),-29.847222,30.235278,7105097,0,12.95000242,0.521932724,3.6505445,2.077170552,0.589530784,0.458795518,-11.24730293,-0.296821888
Africa,GRDC,1160709,NOOITGEDACHT (27662002),-29.748889,30.316944,7105029,120352438,3.629636107,0.308174564,3.539800121,2.659280763,0.381863582,0.487362272,-2.707784156,-0.869393625
Africa,GRDC,1160710,WELTEVREDEN (27662407),-29.4425,30.148333,7104800,120442273,1.146008104,0.747727603,1.169191452,1.309106266,0.543422279,0.673514658,0.49166219,0.484460744
Africa,GRDC,1160715,SHAFTON (27662406),-29.381667,30.2775,7104780,120399005,0.561060508,0.687139293,2.056466193,2.08061513,0.356445204,0.39529582,-0.31261246,-0.277214949
Africa,GRDC,1160717,GROOTHOEK (27662412),-29.423056,30.488056,7104778,120415647,0.898701336,0.523587888,1.990584063,1.842678411,0.581612944,0.593527182,-0.080076818,-0.049902642
Africa,GRDC,1160720,PETRUS STROOM 27662413),-29.5125,30.094167,7104817,120463911,1.012140788,0.844550306,1.186493004,1.189354666,0.658869616,0.697987919,0.611030878,0.611115578
Africa,GRDC,1160721,HOWICK (27662401),-29.487222,30.2375,7104809,120442277,1.383242829,1.015285705,0.739763113,1.005068455,0.71707731,0.76655365,0.457189212,0.765998846
Africa,GRDC,1160723,HAMSTEAD PARK,-29.607722,30.45025,7104886,120404012,0.389584721,0.403161708,1.712897422,1.679822732,0.261881354,0.242718078,-0.194005311,-0.179767267
Africa,GRDC,1160725,INANDA LOC.,-29.642444,30.688611,7104894,120448942,1.63562398,0.710144254,1.248374003,1.361418849,0.499310163,0.517314765,0.153597139,0.330952188
Africa,GRDC,1160730,WELTEVREDE (27711506),-31.922778,26.785556,7105951,120329279,4.732067761,2.788958211,1.036899518,0.687904719,0.258475099,0.269614994,-2.805200458,-0.957354644
Africa,GRDC,1160731,DOORNHOEK (27711502),-31.744167,26.583889,7105894,120359220,5.008671579,2.983643002,1.103760325,0.730622518,0.271796772,0.342486217,-3.075597376,-1.107066245
Africa,GRDC,1160740,BASHEE BRIDGE (27663804),-31.920278,28.447778,7105936,120412480,1.817411083,2.013618867,0.763183019,0.578060358,0.295967782,0.280529526,-0.104492882,-0.312666763
Africa,GRDC,1160743,GXWALI BOMVU,-31.799667,28.333028,7105884,120382520,0.606340235,0.725403246,1.415024072,1.121146649,0.434123504,0.490831772,0.195370147,0.408956709
Africa,GRDC,1160745,CACA 45,-31.670278,28.111639,7105846,120387505,1.026268797,1.282388487,0.925797371,0.734950345,0.405759521,0.356898494,0.400568747,0.249284258
Africa,GRDC,1160750,DOORNKLOOF,-29.071389,30.245556,7104664,120488843,2.080424818,1.270588838,0.715278812,0.844901132,0.586215438,0.570412748,-0.191470355,0.469133552
Africa,GRDC,1160752,THE BEND (27661505),-29.36,29.880833,7104754,120403997,1.829272949,0.995203809,0.960927043,1.015299718,0.641024359,0.660879471,0.095520132,0.660500636
Africa,GRDC,1160755,DARTINGTON (27661506),-29.266111,29.867778,7104709,120369048,1.761435682,0.878570437,0.975670237,1.049445016,0.527391465,0.578053481,0.103487277,0.558152952
Africa,GRDC,1160756,BROADMOOR (27661507),-29.238333,29.787778,7104674,120437269,3.091620224,0.959336171,0.962715261,1.003267404,0.532293751,0.590200837,-1.143598481,0.588175308
Africa,GRDC,1160760,NORWOOD (27663602),-31.584167,28.784167,7105801,120412457,0.354013279,0.585068277,2.745553518,2.124206503,0.261094815,0.333702555,-1.002557564,-0.371116655
Africa,GRDC,1160763,XONKONXA,-31.238056,28.852222,7105699,120390805,1.116162452,1.30660883,0.82607815,0.818124368,0.537682145,0.524105968,0.492574809,0.405388489
Africa,GRDC,1160765,MACLEAR (27663509),-31.071667,28.353333,7105590,120420747,1.029199093,1.436919443,0.667608488,0.73221912,0.470481092,0.477572277,0.374119039,0.268196799
Africa,GRDC,1160770,MAHLUNGULU (27663505),-31.031667,28.884444,7105677,120412422,1.576369517,1.467911746,0.673891186,0.709849536,0.521351824,0.483275849,0.182899728,0.244928783
Africa,GRDC,1160772,LUDIWANA,-31.104278,29.399722,7105630,120432397,1.466303522,0.448480606,2.939924247,1.882552302,0.309267282,0.436873235,-1.111363717,-0.183293692
Africa,GRDC,1160773,KU-MAKHOLA,-30.860139,29.07125,7105531,120460668,0.917677138,1.168968506,0.763372073,0.854225444,0.59683232,0.586201621,0.525327473,0.529862068
Africa,GRDC,1160774,MGUNGUNDLOVU,-30.775867,29.032217,7105456,120439031,0.894535209,0.754228722,0.881430969,1.058579728,0.526708775,0.515669291,0.500814643,0.453729607
Africa,GRDC,1160775,KROMDRAAI (27663508),-30.570556,29.15,7105423,120468968,1.012935126,1.025765234,1.173392543,0.936754515,0.515951959,0.667047004,0.485670536,0.660115408
Africa,GRDC,1160777,NTONTELA,-31.3955,29.265083,7105816,120400800,0.759431858,0.791330773,0.881335193,1.045012386,0.583626561,0.554469415,0.504700891,0.505969168
Africa,GRDC,1160780,NTAFUFU LOC. 35 (27663301),-31.495833,29.528611,7105788,120375846,0.517035254,0.5302661,1.958187002,1.713856958,0.437158519,0.488304027,-0.211679747,0.003970653
Africa,GRDC,1160785,SLANG FONTEIN (27663504),-30.568333,29.422222,7105334,120475626,0.939083913,0.714255806,1.257183164,1.288864901,0.499942635,0.51607159,0.434392965,0.368114424
Africa,GRDC,1160788,INANDA MISSION RES,-29.71511,30.86917,7104957,120410674,2.091293089,0.787217199,0.996987325,1.188766591,0.474032118,0.519706105,-0.211433818,0.44179612
Africa,GRDC,1160790,MISTLEY (27662202),-29.161667,30.629722,7104631,120457231,0.896650204,0.420085589,2.307231603,2.006674315,0.250856407,0.270273418,-0.510215801,-0.371931043
Africa,GRDC,1160793,BOSCHFONTEIN (27662203),-29.008889,30.788611,7104659,120377350,1.187215955,0.243252963,2.843032636,2.865948812,0.317599751,0.385117743,-0.97420597,-1.105352996
Africa,GRDC,1160795,RIET KUIL (27662301),-29.533611,31.089167,7104834,120450600,0.501607216,0.23022833,2.255351448,2.379287057,0.265490048,0.230279416,-0.537467885,-0.757114392
Africa,GRDC,1160800,VLAKDRIFT (27661405),-27.435833,29.975833,7103627,120538657,2.36670221,2.061398094,0.633551301,0.639594928,0.448081832,0.430731953,-0.51880652,-0.257188864
Africa,GRDC,1160810,KUIKVLEI (27661303),-28.309722,30.147778,7104177,120517081,0.652367766,0.627655343,1.723358514,1.60436894,0.410390913,0.456422037,0.004141283,0.105919824
Africa,GRDC,1160815,KLEINFONTEIN (27661304),-28.404722,30.012778,7104232,120443868,1.045383304,0.918515077,1.113269487,1.05910051,0.501788141,0.53427136,0.487062697,0.523517231
Africa,GRDC,1160820,RUST (27661407),-27.849722,29.840556,7103799,120472123,2.633568667,1.156339345,0.917158454,0.926749804,0.45383318,0.466500649,-0.724444115,0.439260185
Africa,GRDC,1160825,BALLENGEICH (27661409),-27.896667,29.953056,7103832,120460478,1.389747909,0.996386793,0.937061116,0.986784186,0.405896975,0.437599172,0.2866816,0.437432311
Africa,GRDC,1160840,LOCH SLOY (27661618),-29.066667,29.748056,7104544,120425610,4.58573118,1.180377871,0.858633687,0.916949071,0.535679615,0.542989352,-2.618431421,0.50171056
Africa,GRDC,1160842,ESTCOURT,-29.00525,29.882639,7104544,120398981,2.415319324,1.090578475,0.768800268,0.874172753,0.50160616,0.522464394,-0.518215573,0.497927086
Africa,GRDC,1160850,TAYSIDE,-28.059167,30.373333,7103934,120528713,1.126912179,0.992898108,0.863293919,0.928582864,0.54626942,0.537813319,0.509422083,0.532274256
Africa,GRDC,1160851,SCHURVEPOORT (27661402),-27.6025,29.9425,7103709,120532011,4.491000267,3.128797524,0.576776411,0.512668651,0.451295785,0.396063162,-2.559111882,-1.265835486
Africa,GRDC,1160880,MANDINI (27661102),-29.140278,31.3925,7104653,120492174,1.925940664,1.343862967,0.840068398,1.032373257,0.598049081,0.55427691,-0.022012119,0.436121608
Africa,GRDC,1160881,TUGELA DRIFT (27661701),-28.735833,29.820833,7104359,120522101,3.19210082,1.585630896,0.509854461,0.66893854,0.470533112,0.471478396,-1.30778765,0.144488268
Africa,GRDC,1160882,KLEINE WATERVAL (27661726),-28.721667,29.375556,7104325,120460532,3.266380899,1.527801601,0.608001712,0.734509523,0.454992055,0.45279848,-1.363721367,0.194711712
Africa,GRDC,1160883,TUGELA FERRY,-28.750028,30.442222,7104376,120505462,1.935435592,1.674077493,0.701853966,0.71132643,0.484983596,0.458035924,-0.108680613,0.088167802
Africa,GRDC,1160885,WINTERTON (27661710),-28.818056,29.545,7104411,120540411,2.069137004,1.594855486,0.626543593,0.683735837,0.547794361,0.538041476,-0.219431655,0.183126847
Africa,GRDC,1160890,KLEINE WATERVAL (27661731),-28.723889,29.351389,7104328,120470515,6.47883425,1.680061713,0.602900903,0.655585893,0.423302443,0.412018897,-4.523395016,0.037281563
Africa,GRDC,1160891,SCHOON SPRUIT (27661729),-28.508056,29.348056,7104295,120225893,13.37699949,1.105000769,0.885344334,1.072250774,0.419612851,0.428816896,-11.39113035,0.414768871
Africa,GRDC,1160892,FRERE (27661709),-28.892222,29.770278,7104485,120402303,3.591412699,3.649920787,0.462976004,0.444532421,0.282746375,0.22540894,-1.741945899,-1.81613489
Africa,GRDC,1160893,GROOT GELUK (27661734),-28.673056,29.085556,7104363,120377330,25.08656076,1.876818598,0.498890273,0.605967181,0.413272911,0.432246529,-23.09891634,-0.116430347
Africa,GRDC,1160894,KLEINERIVIER (27661741),-28.8125,29.310556,7104529,120478842,1.805608812,1.059431197,0.909887586,0.971547711,0.593556669,0.6046901,0.09318029,0.599236332
Africa,GRDC,1160900,DOORNHOEK (27650209),-27.8975,30.883611,7103840,120495423,0.764184939,1.483478018,0.797571829,0.887248236,0.28575049,0.225980003,0.22106594,0.080450703
Africa,GRDC,1160911,NATIVE RES. 12 (27650206),-28.069444,31.549444,7103930,120558664,0.312394684,0.68789322,0.505571434,1.068133925,0.066932882,0.066544378,-0.260109092,0.013393558
Africa,GRDC,1160913,EKUHLENGENI,-27.938639,31.209444,7103868,120493761,0.573309328,0.426415085,2.087558603,2.174216722,0.396622719,0.393010171,-0.314881283,-0.440909857
Africa,GRDC,1160915,OVERVLOED,-28.339361,31.373833,7104185,120563675,0.8256053,1.434390976,1.07050057,1.062230467,0.408528702,0.370123709,0.37933734,0.232333214
Africa,GRDC,1160919,STATE LAND,-28.445639,32.325139,7104191,120573666,0.568994777,0.639197222,1.351424029,1.404795957,0.356225194,0.382412106,0.149288326,0.17814039
Africa,GRDC,1160920,MPATE FOREST RES. (27650114),-28.331389,32.361111,7104132,120410585,81.36339647,1.778881977,0.767900965,0.641462336,0.130494496,0.129278864,-79.36843536,-0.222031786
Africa,GRDC,1160930,MORRISVALE (27650111),-27.660278,32.4225,7103692,120613551,1.845359943,0.602914326,2.127399835,2.279761258,0.164522911,0.153811113,-0.638195894,-0.584771763
Africa,GRDC,1160940,DASSJES KLIP,-34.251667,20.991944,7106692,120118102,0.076766321,0.540369993,2.879175197,1.54145492,0.413043758,0.53179342,-1.174437278,0.149323461
Africa,GRDC,1160950,SUURBRAAK (27694303),-34.002778,20.656111,7106677,120204615,0.254796309,1.14185021,1.121332396,0.957781825,0.395461295,0.578731278,0.032778652,0.553489986
Africa,GRDC,1160955,BARRYDALE (27694304),-33.910556,20.713056,7106677,120212929,2.571154526,1.89604294,1.264834282,0.915570343,0.275849864,0.414558176,-0.750159182,-0.07366822
Africa,GRDC,1160957,SPARKENBOSCH (27694307),-34.020278,20.535556,7106677,120211271,0.829233716,0.420641911,4.429064234,2.200927628,0.273290773,0.43972521,-2.509380137,-0.446302459
Africa,GRDC,1160960,FARM 216 (27694105),-34.0925,21.294167,7106679,120154700,0.047296003,0.828102772,1.881822527,1.087341592,0.36081484,0.482813129,-0.44700157,0.448040336
Africa,GRDC,1160965,KRUIS RIVER (27694104),-34.015,21.289167,7106679,120099781,0.164110446,0.418729219,4.206795451,2.089755559,0.326166662,0.523018655,-2.381759864,-0.32399173
Africa,GRDC,1160970,ESHOWE (27650304),-28.872778,31.457222,7104507,120382334,4.804077265,1.19501821,0.65475306,0.881468956,0.231291492,0.175244401,-2.896294658,0.144252661
Africa,GRDC,1160971,NATIVE RESERVE 21 (27650310),-29.010278,31.459167,7104575,120413957,0.338807088,0.188598757,2.928650912,2.63844168,0.380338891,0.393013843,-1.130927098,-0.926472245
Africa,GRDC,1160974,ESHOWE (27650325),-28.872778,31.457222,7104507,120382334,23.93435608,0.338124127,6.512202558,2.775084944,0.305597476,0.400043813,-22.59769609,-0.987197438
Africa,GRDC,1160975,RIVERVIEW (27650309),-28.748056,31.745556,7104413,120497140,1.734093499,1.588153884,0.838846069,0.817862317,0.351508968,0.316396066,0.007324588,0.079992682
Africa,GRDC,1160979,UMHLATUZE VALLEY,-28.801278,31.955389,7104425,120540410,2.853905727,0.76968896,1.216166345,1.164276725,0.393770375,0.408668259,-0.962449666,0.344482459
Africa,GRDC,1160981,STATE LAND,-30.328278,30.328972,7105284,120384090,1.208274489,0.105042998,8.158365846,6.633517424,0.123133911,0.294531731,-6.214878654,-4.747621428
Africa,GRDC,1160983,COWICK,-30.399222,30.600778,7105267,120404063,0.216498098,0.487016719,2.194894369,2.148934345,0.468941953,0.506781792,-0.524359024,-0.351468156
Africa,GRDC,1160985,UMBELI BELLI,-30.274028,30.696028,7105212,120387414,0.699462253,0.537470994,1.232048898,1.800760159,0.705194798,0.91825466,0.519292463,0.071650812
Africa,GRDC,1196100,FINALE (27521009),-24.331111,30.741389,7101260,120691546,1.886929341,0.965219621,1.200674175,1.188789408,0.527644426,0.575155411,-0.024711456,0.533798284
Africa,GRDC,1196101,ZEEKOEGAT (27526002),-24.268056,29.801111,7101124,120621654,0.17057944,0.278457752,2.925640789,3.279859461,0.605586737,0.559587509,-1.133446211,-1.431531522
Africa,GRDC,1196102,LOSKOP NOORD (27527001),-24.926389,29.389444,7101737,120570112,1.371490638,0.468858416,1.441598528,1.39404202,0.360670099,0.404504915,0.138746683,0.110059051
Africa,GRDC,1196104,WATERVAL,-25.578778,29.127472,7102288,120540201,0.507725355,0.409275127,2.392149388,2.304655479,0.365307453,0.387479696,-0.607248852,-0.557646595
Africa,GRDC,1196105,LOSKOP NOORD,-24.958611,29.395278,7101737,120626690,1.93833234,0.438574626,2.367308672,1.586800529,0.273918082,0.404484814,-0.810302609,-0.007060896
Africa,GRDC,1196106,SKERP ARABIE,-24.926472,29.323389,7101675,120541824,2.382326776,0.441656565,1.897364255,1.908583349,0.386413289,0.366516136,-0.75857288,-0.240392237
Africa,GRDC,1196110,ELANDSPRUIT (27529002),-25.818889,29.3375,7102452,120475323,0.547269679,0.829194743,1.93833497,1.543152947,0.289207075,0.286813663,-0.261215224,0.087407917
Africa,GRDC,1196130,LEEUWFONTEIN (27547029),-25.646944,28.390278,7102269,120462000,3.718516816,0.56618018,1.804314852,1.806305626,0.276808387,0.260021528,-1.925792571,-0.17724107
Africa,GRDC,1196140,MASUNGA RIVER (27521008),-24.009167,30.672222,7100874,120570053,4.032137167,4.545608672,0.677740534,0.544583625,0.127404486,0.2604574,-2.171613138,-2.650433972
Africa,GRDC,1196142,CALAIS (27521014),-24.123889,30.355278,7100874,120327117,9.04768331,1.078387556,0.804921753,0.909488872,0.350945145,0.578735905,-7.076170775,0.562049876
Africa,GRDC,1196150,HARMONY (27521010),-24.035,30.433333,7100874,120428615,2.356359307,1.271715607,0.534911353,0.662596684,0.284016285,0.450843973,-0.602701064,0.30054113
Africa,GRDC,1196160,FLEUR DE LYS (27521004),-24.556111,31.032222,7101325,120600041,0.919601173,0.345957564,2.824670024,2.58126381,0.207760919,0.287416918,-0.990860977,-0.853629249
Africa,GRDC,1196170,DWARS RIVER (27525009),-24.911944,30.103056,7101808,120461952,2.132761422,0.654169463,1.538960414,1.563476883,0.384787917,0.415667356,-0.397180259,0.117645424
Africa,GRDC,1196175,BUFFELSKLOOF,-25.029111,29.855806,7101831,120561799,1.617063699,0.817656651,1.269702501,1.181780668,0.562983345,0.556006275,0.197198279,0.486751779
Africa,GRDC,1196180,MODDERSPRUIT (27525005),-25.035833,30.219167,7101829,120465287,2.072432969,0.661790637,1.861042833,1.488826005,0.406122972,0.442445349,-0.498064471,0.185013114
Africa,GRDC,1196190,WILLEMSOORD (27524003),-24.686944,30.813611,7101664,120453618,3.748210338,1.145601084,0.912188731,0.936501323,0.367278767,0.417346869,-1.821472495,0.396082432
Africa,GRDC,1196200,MOOIPLAAS - KRUGER NAT. PARK (27523011),-23.526667,31.403333,7100497,120553382,2.794645736,0.594451637,1.695514162,1.34242526,0.228401333,0.282135872,-1.07360984,0.107221506
Africa,GRDC,1196205,SILWERVIS KRUGER NATIONAL PARK,-23.216284,31.223545,7100060,120693137,0.778535148,1.407729134,0.834205388,0.764029395,0.336917197,0.284194852,0.28152012,0.143085662
Africa,GRDC,1196210,VLAKTEPLAAS/KRUGER NAT. PARK (27522001),-22.837778,31.237222,7099820,120603258,1.056512334,0.718339153,1.317611391,1.169004037,0.232563226,0.269818106,0.167515861,0.199337277
Africa,GRDC,1196213,LOCATIE VAN TABAAN,-23.281016,30.543094,7100261,120643222,2.563450705,2.515139622,0.334141966,0.439340858,0.143675224,0.161842345,-0.902902297,-0.820026099
Africa,GRDC,1196215,LETABA RANCH,-23.658372,31.049904,7100557,120629935,2.29772126,0.348075632,2.66758785,1.790902692,0.335382634,0.391994284,-1.215095021,-0.191722871
Africa,GRDC,1196220,ENGELHARDT DAM KRUGER NATIONAL PARK,-23.83532,31.637449,7100793,120609978,1.334768294,0.736089665,1.696527692,1.523234663,0.415020455,0.410416896,0.030762307,0.168717007
Africa,GRDC,1196300,HAARLEM EAST (27546004),-24.1594,27.479167,7100988,120576719,0.845195174,0.552671991,1.670534466,1.665778446,0.405292973,0.481927657,0.090463056,0.045137581
Africa,GRDC,1196310,CHIBASE (27541002),-22.907778,30.528056,7099777,120505086,1.788225047,0.582597702,1.385971088,1.038246776,0.486853566,0.567999982,-0.016657105,0.398076824
Africa,GRDC,1196320,TENGWE (27541004),-22.770833,30.538889,7099672,120623222,0.642125821,0.846496224,1.587749003,1.232802788,0.450524386,0.420325958,0.11940573,0.356740688
Africa,GRDC,1196330,WELTEVREDEN (27541001),-23.112222,30.389444,7099962,120623242,1.188345523,0.770503461,2.603597743,2.077233636,0.444935875,0.398975805,-0.707365204,-0.254723496
Africa,GRDC,1196340,MHINGA,-22.768514,30.889258,7099714,120596597,0.916851651,0.528547992,1.995276214,1.639122004,0.432542266,0.465701585,-0.148693462,0.042806849
Africa,GRDC,1196350,SCHEERPOORT,-25.776944,27.761111,7102375,120491959,1.007240534,0.532026999,2.86317899,2.113913664,0.511355427,0.412457004,-0.926204011,-0.34350629
Africa,GRDC,1196360,ZANDRIVIER (27546002),-24.282778,28.089722,7101187,120521816,0.900529909,0.246247269,3.424738447,2.572809974,0.232966183,0.245790292,-1.545111336,-0.900185959
Africa,GRDC,1196370,DOORNSPRUIT (27546008),-24.216389,27.973056,7101121,120510164,0.352890541,0.255142009,3.498444719,2.596601128,0.230894598,0.301771538,-1.693046562,-0.895117826
Africa,GRDC,1196380,BLAKENEY (27546007),-23.763611,27.908056,7100702,120561718,0.43286337,0.594857968,1.927985324,1.584533551,0.092568009,0.300146969,-0.416415736,0.002195509
Africa,GRDC,1196390,KRUGER NATIONAL PARK,-22.437734,31.077833,7099333,120711392,0.909334349,0.442369471,2.391684633,2.001126748,0.468343952,0.532605053,-0.492536275,-0.237604383
Africa,GRDC,1196400,BOTSWANA OXENHAM RANCH,-22.950762,27.973589,7099815,120658177,2.161760411,0.73879524,1.625499845,1.601773874,0.535904592,0.514519822,-0.398685761,0.183880692
Africa,GRDC,1196405,BOTSWANA,-22.934764,28.003922,7099815,120673152,2.966348198,0.778767019,1.089423914,1.171130312,0.518894017,0.559823437,-1.026322985,0.478478167
Africa,GRDC,1196410,ZWARTKOP (27547050),-25.991389,27.841944,7102550,120440389,0.163992768,0.209204985,5.741142761,4.748794458,0.308238903,0.307757109,-3.863730686,-2.893329791
Africa,GRDC,1196413,KALKHEUWEL,-25.81056,27.90983,7102428,120550203,0.145118262,0.165648867,5.770034403,4.624497965,0.407712604,0.391990982,-3.882095386,-2.768660542
Africa,GRDC,1196415,GROOTFONTEIN (27547053),-25.809167,27.475833,7102175,120325561,0.476044823,0.270051581,3.917549503,3.510066422,0.282691354,0.32276492,-2.049779635,-1.700352845
Africa,GRDC,1196420,RIETVALLEI (27547039),-25.72,27.185556,7102383,0,21.01195549,0.441308767,4.4643238,2.274844431,0.312846202,0.279854682,-19.32122246,-0.567154586
Africa,GRDC,1196423,RIETVALLEI,-25.73486,27.21425,7102383,0,5.709530529,0.213976192,4.459083068,4.055815569,0.223365954,0.209382308,-4.894751387,-2.25283239
Africa,GRDC,1196425,MOEDWIL (27547032),-25.637222,27.026944,7102349,120510254,1.431671654,0.685129537,1.769900529,1.459073428,0.318356535,0.394690661,-0.115224217,0.17763073
Africa,GRDC,1196435,NAAUWPOORT (27548018),-25.814222,26.049139,7102379,120353850,0.719463172,0.069979284,15.82589808,9.045701471,0.020502475,0.035240323,-13.86086707,-7.156531857
Africa,GRDC,1196440,VAALKOP,-25.20631,27.55794,7101988,120558482,0.753148327,0.475698846,1.422698277,1.786164741,0.442475956,0.518240117,0.258081783,-0.060678691
Africa,GRDC,1196441,BAVIAANSPOORT,-25.66361,28.35131,7102401,120523570,0.249581973,0.2818558,4.287380796,4.135748561,0.382461137,0.396228452,-2.42802479,-2.273101009
Africa,GRDC,1196443,KLIPDRIFT,-25.38022,28.3165,7102269,120516894,0.375582155,0.578543864,1.795065196,1.756109884,0.455502982,0.577051031,-0.148260996,0.03656175
Africa,GRDC,1196445,RONDAVEL,-25.47086,28.26378,7102322,120453668,0.117910033,0.234651673,5.221687356,3.834083265,0.408378057,0.464891338,-3.353245153,-1.983978434
Africa,GRDC,1196447,BUFFELSPOORT,-25.12856,27.62858,7101917,120571789,0.548063592,0.411249499,2.182670353,2.216852336,0.413934118,0.443644918,-0.39514476,-0.461809747
Africa,GRDC,1196450,HAAKDORINGDRIFT,-24.69508,27.409,7101606,120648306,1.100172332,0.521406608,1.504736097,1.714565211,0.468493723,0.486104001,0.260208173,-0.001870338
Africa,GRDC,1196455,MAKOPPA,-24.39619,27.08983,7101183,120674910,1.035076355,0.598754125,1.311996812,1.46194071,0.544881312,0.520777202,0.447093695,0.222798635
Africa,GRDC,1196500,ZAMENKOMST (27543003),-23.067423,29.578913,7100003,120631560,0.787753657,0.552534768,0.878034654,1.043682909,0.275632925,0.255201296,0.235387866,0.130023885
Africa,GRDC,1196540,WATERPOORT,-22.910192,29.611039,7099853,120656512,8.845572928,2.064037753,0.560352858,0.566513768,0.353312744,0.373545061,-6.884447259,-0.308637629
Africa,GRDC,1196550,BEITBRUG U/S,-22.224444,29.986944,7099090,120739666,2.235706127,1.582197399,0.831571609,0.819522687,0.597871178,0.629151709,-0.310360769,0.286519568
Africa,GRDC,1196551,BEITBRUG D/S,-22.226111,29.990278,7099090,120741330,1.696782173,0.934777881,1.044202535,1.037184068,0.472260744,0.447988338,0.124804031,0.442906243
Africa,GRDC,1196560,VISCHGAT (27544010),-24.578611,28.639444,7101416,120455273,15.32620818,0.937749002,1.091297211,1.05754108,0.303883641,0.319062269,-13.34340106,0.31380589
Africa,GRDC,1196561,OLIFANTSPOORT (27544012),-24.665278,28.475,7101464,120490224,0.638525457,0.4677496,2.108279771,2.088111754,0.278835354,0.315505902,-0.370775818,-0.391333837
Africa,GRDC,1196562,SUSSENSVALE (27544018),-24.771389,28.348056,7101499,120377077,4.248766248,0.393584079,3.308131009,2.656661328,0.283600731,0.322773756,-3.049096048,-0.889683151
Africa,GRDC,1196563,RIETSPRUIT (27544019),-24.663056,28.454722,7102722,120382063,11.03281788,0.485485971,1.535762611,1.89645287,0.057358815,0.051695717,-9.091236224,-0.402723582
Africa,GRDC,1196564,MIDDELFONTEIN (27544020),-24.671389,28.560278,7101465,120350445,7.13007987,0.885231129,1.033450403,1.173174274,0.238242928,0.221687051,-5.177319158,0.194436675
Africa,GRDC,1196565,GROENVALEY (27544021),-24.633333,28.596389,7101465,120328813,15.34626697,1.0690624,1.110516514,1.008625413,0.30827833,0.316252543,-13.36335855,0.312719418
Africa,GRDC,1196566,HARTEBEESTLAAGTE (27544022),-24.602039,28.607493,7101416,120319059,203.5810292,1.953125298,0.974603314,0.702894747,0.179176284,0.225353695,-201.5826937,-0.263644041
Africa,GRDC,1196569,LENIESRUS,-22.550215,28.897404,7099445,120656487,2.461992213,1.062337328,1.239928651,1.038427944,0.206078089,0.362762092,-0.680862573,0.358568163
Africa,GRDC,1196570,MUISVOGELKRAAL (27545004),-23.981667,28.399444,7101012,120556739,0.256527328,0.543462016,2.69977268,2.181538265,0.325742142,0.408365835,-0.973981367,-0.398030968
Africa,GRDC,1196600,WOLWEKRANS,-26.006389,29.253889,7102617,120530246,0.520545597,1.230927299,0.935707444,0.836097682,0.460473822,0.449246944,0.275363157,0.380709829
Africa,GRDC,1196700,WILLEMSOORD (27524001),-24.68,30.801944,7101664,120521841,1.070675948,0.844856299,1.731852559,1.269690019,0.482431671,0.584524367,0.100844712,0.48094097
Africa,GRDC,1196710,DRIEHOEK,-24.51752,30.83174,7101333,120628326,1.376985784,1.088387294,1.00046592,0.964191123,0.332817185,0.421107111,0.233676696,0.413304537
Africa,GRDC,1196720,LOOLE,-24.03642,31.12821,7100839,120648262,2.046292101,0.556024907,1.977269162,1.711768128,0.378708517,0.51895822,-0.560700254,0.032979346
Africa,GRDC,1196800,OXFORD,-24.18473,30.82299,7100977,120699856,1.726183635,0.92441898,1.063719203,0.98320037,0.523935022,0.546263362,0.129344688,0.539704817
Africa,GRDC,1196850,MAMBA KRUGER NATIONAL PARK,-24.06628,31.24288,7100882,120654920,1.748476475,1.001649107,1.111766461,1.047011827,0.559889085,0.604948787,0.124553603,0.602157956
Africa,GRDC,1197001,TONGA (27613103),-25.682222,31.781667,7102305,120591793,1.561355027,1.429162274,0.996693146,0.742103205,0.571909343,0.634126482,0.294031154,0.37987546
Africa,GRDC,1197010,GEMSBOKHOEK,-25.838111,30.412778,7102493,120576827,1.542303552,1.428381015,0.866962788,0.852027823,0.534992671,0.503935348,0.273347498,0.328072774
Africa,GRDC,1197090,KOMATIPOORT,-25.436611,31.982444,7102222,120598433,1.993587031,0.869955619,0.926783539,0.908285338,0.535220464,0.580972804,-0.099361567,0.551773594
Africa,GRDC,1197100,VRIESLAND (27613120),-25.838889,30.684167,7102486,120330554,12.05129154,1.487214013,0.714511496,0.713872548,0.18473271,0.213917314,-10.08499928,0.031923349
Africa,GRDC,1197200,WENELA DRIFT (27611004),-24.449444,31.976667,7101231,120580065,1.62491005,0.625365052,1.982041616,1.30517126,0.242413936,0.286701578,-0.388832225,0.138445892
Africa,GRDC,1197300,HOOGGENOEG (27613101),-26.036111,30.9975,7102605,120558534,1.088283575,1.134862393,1.242670118,1.057475531,0.613803,0.613138556,0.535423958,0.586293487
Africa,GRDC,1197310,LOMATI (27613114),-25.673611,31.575278,7102300,120545200,0.934403271,0.768021741,1.397029175,1.393559494,0.392195126,0.405565909,0.271054281,0.250296807
Africa,GRDC,1197500,TENBOSCH (27613216),-25.363611,31.955556,7102126,120618396,2.05180722,1.172274759,0.815645554,0.8332885,0.465325163,0.47162256,-0.194220319,0.419781045
Africa,GRDC,1197501,KARINO (27613206),-25.469722,31.088056,7102157,120520227,1.729581976,0.862615018,1.601245891,1.050477758,0.636639201,0.705575806,-0.012826516,0.67120182
Africa,GRDC,1197502,MONTROSE (27613213),-25.448611,30.711667,7102143,120530209,1.44377443,0.817291343,1.705384277,1.359292681,0.464293671,0.485220071,0.00930126,0.346186526
Africa,GRDC,1197505,WELTEVREDE,-25.514194,31.224528,7102211,120513573,2.381622849,0.977016184,1.127193467,1.068240326,0.647444236,0.67768378,-0.431556999,0.669738371
Africa,GRDC,1197507,RIVERSIDE,-25.398889,31.610556,7102203,120551838,1.844403563,1.069787677,0.831635509,0.995969289,0.492141417,0.525993748,0.000357904,0.520866935
Africa,GRDC,1197510,KRUGER NATIONAL PARK (27613218),-25.278333,31.6225,7102018,120515221,2.465531751,1.14588608,0.808494577,0.611826197,0.218588563,0.283842707,-0.671843735,0.172447634
Africa,GRDC,1197520,GOEDE HOOP (27613223),-25.462222,31.083056,7102158,120541856,14.59666306,0.840034535,0.860481365,1.071878977,0.444765859,0.431426935,-12.60871033,0.404995069
Africa,GRDC,1197530,BOSCHRAND (27613205),-25.4325,30.965556,7102129,120485278,3.24372369,1.091412038,1.141844479,0.844573249,0.583721059,0.617800433,-1.286417287,0.577400728
Africa,GRDC,1197540,SUDWALASKRAAL (27613214),-25.382222,30.701389,7102122,120480282,1.649886399,0.788709479,2.190409594,1.222142326,0.513972051,0.587916684,-0.440711803,0.486381896
Africa,GRDC,1197550,LINDENAU (27613215),-25.490278,30.698333,7102229,120478628,1.225956558,0.891650971,1.512450997,1.193691685,0.582984325,0.608731008,0.301741836,0.550169582
Africa,GRDC,1197551,GELUK (27613211),-25.646389,30.2775,7102319,120486958,2.383269947,0.823142593,1.163881821,1.09612782,0.412303886,0.414680253,-0.51184646,0.381034487
Africa,GRDC,1197555,GELUK (27613212),-25.658333,30.260278,7103650,120412081,24.40543464,1.055043757,1.60122496,1.658122092,0.176745863,0.169347931,-22.42762449,-0.061196194
Africa,GRDC,1197560,GLENTHORPE (27613224),-25.711667,30.835,7102339,120425394,1.860122668,0.490589263,3.459520231,2.452078702,0.404551117,0.48228288,-1.672753289,-0.623595662
Africa,GRDC,1197561,ELANDSDRIFT (27613225),-25.289167,30.567778,7102122,120350487,7.609415053,0.7225766,1.739945778,1.438554283,0.461130231,0.422651852,-5.67250086,0.223711081
Africa,GRDC,1197562,ELANDSDRIFT (27613226),-25.2875,30.570833,7102122,120350487,16.04325562,0.730562415,1.660508479,1.266039297,0.464906271,0.452748542,-14.06725378,0.334524472
Africa,GRDC,1197563,ELANDSDRIFT (27613227),-25.2975,30.595556,7102122,120428693,3.328420632,0.681181986,1.58846691,1.311553686,0.443725814,0.419784694,-1.46521336,0.268316717
Africa,GRDC,1197564,ELANDSDRIFT (27613228),-25.295556,30.566944,7102122,120370483,76.10620687,1.182206266,1.805425603,1.014135305,0.437494668,0.332305156,-74.11263165,0.307746192
Africa,GRDC,1197580,BELLEVUE (27613210),-25.610833,30.874722,7102294,120488620,1.954818962,0.990745522,2.659047839,2.343355234,0.459861295,0.434912407,-0.988936601,-0.457399368
Africa,GRDC,1197590,BORNMANS DRIFT (27613231),-25.73,30.978333,7102339,120473652,1.086265733,0.750580671,1.691449892,1.560058132,0.40606072,0.413789649,0.084408061,0.151756115
Africa,GRDC,1197591,INLOOP (27613230),-25.716389,30.7875,7102339,120342195,2.327419372,0.522345871,4.709478772,2.693142111,0.362685939,0.386466277,-2.991045498,-0.863144466
Africa,GRDC,1197593,DOLTON,-25.543222,31.316694,7102243,120620072,1.530316635,0.93388636,1.061473549,1.175809402,0.468431359,0.462961026,0.246620978,0.431061674
Africa,GRDC,1197595,SASSENHEIM (27613208),-25.785833,30.924167,7102388,120410424,1.439998912,0.762053391,1.528983318,1.435165575,0.388987945,0.392233049,0.079805388,0.215545837
Africa,GRDC,1197700,PERRYS FARM (27612006),-25.030556,31.126389,7101786,120541831,2.054953459,0.950068976,1.266694131,0.935583986,0.490046158,0.521302482,-0.201709399,0.514413917
Africa,GRDC,1197701,SABIE (27612001),-25.088889,30.777778,7101841,120471947,3.645777912,0.718961079,1.75812731,1.274554856,0.614786888,0.66767534,-1.779080229,0.485409945
Africa,GRDC,1197705,SABIE (27612002),-25.091667,30.778056,7101841,120417034,18.98640152,0.812628716,2.246337226,1.268729589,0.51265298,0.604423901,-17.03611663,0.486381425
Africa,GRDC,1197710,DE RUST (27612004),-25.076111,31.130278,7101876,120490250,3.387289838,1.577288003,0.978317487,1.160538724,0.458702476,0.429959661,-1.44798405,0.172969101
Africa,GRDC,1197720,ETNA (27612007),-25.153611,31.002222,7101876,120441998,7.219045041,0.682095844,2.927208708,1.23827807,0.439749815,0.579075584,-5.534870687,0.421193595
Africa,GRDC,1197730,GEELHOUTBOOM (27612003),-24.993056,30.814167,7101781,120408707,2.451593579,0.692215062,2.211966809,1.414113608,0.450023408,0.588705646,-0.969381049,0.340163131
Africa,GRDC,1197740,EXETER (27612008),-24.753333,31.388333,7101560,120500214,0.86521764,1.093210133,0.517024232,0.735292007,0.31777808,0.599118281,0.15332496,0.510648794
Africa,GRDC,1197745,KRUGER GATE KRUGER NATIONAL PARK,-24.968472,31.515417,7101734,120561795,1.31076087,1.04654296,0.980739993,1.01247005,0.411562422,0.45037992,0.334265782,0.448271823
Africa,GRDC,1197750,LOWER SABIE RESTCAMP KRUGER NATIONAL PARK,-25.149528,31.940667,7101909,120545165,1.637803981,0.718046713,1.030717858,1.040643821,0.429162752,0.526993479,0.143499755,0.447836306
Africa,GRDC,1199100,BUSBY (27632211),-26.279722,30.594167,7102891,120513622,4.118168863,1.237483008,0.749427376,0.843376651,0.515907432,0.560658986,-2.165455624,0.476598071
Africa,GRDC,1199110,JESSIEVALE FOR. RES. (27632201),-26.260556,30.549722,7102891,120570199,215.901964,1.696379341,0.968493482,0.634520382,0.49025198,0.445783056,-213.9025708,0.037879446
Africa,GRDC,1199115,DUMBARTON,-26.38708,30.84461,7102891,120571869,1.393940644,0.852335795,1.231368162,1.190454994,0.541389276,0.55391438,0.352663724,0.49297909
Africa,GRDC,1199200,WELGELEGEN (27632104),-27.528056,30.853889,7103596,120535335,1.07419651,0.789549957,1.758307301,1.390007732,0.48767752,0.586566319,0.081844562,0.393928503
Africa,GRDC,1199300,PONGOLA (27632108),-27.394722,31.6425,7103550,120523679,1032.458825,2.964768039,1.257470417,1.021543623,0.181525499,0.132430737,-1030.459182,-1.147895249
Africa,GRDC,1199310,M'HLATI,-27.36325,31.782611,7103510,120568603,1.12206792,0.869274844,1.318806791,1.187943551,0.475996547,0.526422545,0.374605751,0.473989115
Africa,GRDC,1199410,BROADHOLMS (27632208),-26.483333,30.633889,7102925,120506980,19.27331892,1.574879812,1.04386524,0.805154797,0.452208738,0.425237122,-17.28158045,0.164055135
Africa,GRDC,1199415,STAFFORD,-26.51336,30.78617,7102925,120583526,2.738858583,1.255742688,0.940797475,0.888752542,0.439152213,0.46950481,-0.828027448,0.400662478
Africa,GRDC,1199450,BUSHMANS SPRUIT (27632204),-26.750278,30.466389,7103059,120523637,1.162834347,0.66977422,2.464855867,1.957469294,0.55531637,0.483821815,-0.53950033,-0.136765778
Africa,GRDC,1199453,ISHLELO,-26.82786,30.72831,7103219,120623482,0.920242554,0.770016834,1.484112658,1.341169627,0.525055398,0.544209164,0.317139333,0.385968847
Africa,GRDC,1199455,MERRIEKLOOF,-26.67717,30.70208,7103053,120511984,1.667478128,0.724751452,1.620878347,1.408910552,0.433340242,0.458513507,-0.073368648,0.267758766
Africa,GRDC,1199460,ZWARTWATER (27632206),-27.114444,30.831389,7103347,120468749,0.421188395,0.334032343,3.137760516,2.416480918,0.321463619,0.36328368,-1.316345077,-0.689774773
Africa,GRDC,1199465,ZANDBANK,-27.06519,30.99356,7103324,120593545,1.093578886,0.750806406,1.295200454,1.326442422,0.378472236,0.384074082,0.305595883,0.259711651
Africa,GRDC,1234050,DOLBEL,14.62,0.3,7038970,140673361,0.147527471,0.749725973,5.765852241,7.027677623,0.139838168,-0.00792561,-3.91730977,-5.116489896
Africa,GRDC,1234080,ALCONGUI,14.75,0.6,7038213,140718487,0.353456176,0.188518826,3.744547552,2.512860291,0.166167821,0.195824666,-1.940380296,-0.895770535
Africa,GRDC,1234090,KANDADJI,14.6167,0.9833,7038709,140717041,4.059422995,1.035984075,1.441575235,1.041058951,0.429984071,0.843192993,-2.143242897,0.833960461
Africa,GRDC,1234100,TERA,14.02,0.75,7040127,140546732,0.057040946,0.141107539,1.900928113,2.275002932,0.23777362,0.032388009,-0.510573499,-0.81648058
Africa,GRDC,1234120,KAKASSI,13.85,1.47,7040613,140600617,0.060882983,0.165223629,2.162960656,3.672665604,0.200659118,0.023611203,-0.695100028,-1.965354633
Africa,GRDC,1234130,GARBE-KOUROU,13.7333,1.6167,7040937,140606449,0.208429565,0.363402184,2.303542963,1.722845963,0.311602677,0.305769419,-0.673230075,-0.18731595
Africa,GRDC,1234150,NIAMEY,13.52,2.09,7041712,140648690,3.156848601,1.107146567,1.606813265,0.936297133,0.46056091,0.730509532,-1.304606855,0.703076517
Africa,GRDC,1234180,DIONGORE AMONT,12.96,2.32,7042907,140622523,461.1614848,1.78780289,0.752945996,1.126186963,0.309223464,0.332453048,-459.1620697,-0.040276634
Africa,GRDC,1234190,TAMOU,12.74,2.24,7043417,140609435,0.590987177,0.238160408,2.718509545,3.500255515,0.266450725,0.17985737,-0.912762684,-1.739399777
Africa,GRDC,1234200,CAMPEMENT DU DOUBLE VE,12.47,2.42,7044121,140645855,1.938630631,0.188983748,2.958025982,3.381910435,0.172093291,0.097004292,-1.323859447,-1.673321142
Africa,GRDC,1234201,W,12.5833,2.6167,7044201,140610903,3.72139477,0.947016503,1.526472384,1.0941742,0.504398839,0.837460288,-1.815809507,0.804820111
Africa,GRDC,1234500,TSERNAOUA,13.88,5.33,7041008,140548199,0.160495477,0.790022567,2.085303165,3.314062355,0.043501781,0.009963575,-0.672584721,-1.525697374
Africa,GRDC,1234550,BADEGUICHERI,14.5,5.37,7038965,140623865,0.014452047,0.524916727,0.674294371,1.59868265,0.091994907,0.014348202,-0.379080191,-0.247250776
Africa,GRDC,1234650,GUINDAM ROUMDJI,13.67,6.77,7040939,140600631,0.0011492,0.072546478,1.95869569,3.07526441,0.393604393,0.086395338,-0.511461537,-1.449809357
Africa,GRDC,1234680,MADAROUNFA,13.32,7.17,7041935,140647248,0.2374373,0.374370631,1.049721608,1.203995362,0.193264111,0.236960691,-0.111214158,-0.007598731
Africa,GRDC,1234700,NIELLOUA,13.15,7.22,7042378,140637071,0.229497486,0.306907692,1.549376499,1.769283399,0.153271452,0.168947379,-0.269818056,-0.327713205
Africa,GRDC,1237500,BAGARA DIFFA,13.28,12.6,7042464,180362496,8.381051779,1.054653791,0.837043992,0.924934978,0.681812377,0.958221572,-6.389703876,0.898180398
Africa,GRDC,1253210,MASOLO (55773181),-7.466667,30.738889,7081940,130547176,10.67227945,1.176056743,0.840790166,1.038799948,0.480536589,0.433529464,-8.687527017,0.405533617
Africa,GRDC,1253300,YUNGA (55132016),-8.4,31.133333,7083075,110434006,7.500756497,1.097292404,0.81503203,0.894020531,0.338628649,0.752107579,-5.536930491,0.71338508
Africa,GRDC,1253350,KALAMBO FALLS (55773185),-8.6,31.1944,7083239,130574638,6.285318611,1.194671603,0.830623321,0.985338802,0.495957539,0.798363329,-4.311999631,0.719341255
Africa,GRDC,1255100,RUACANA (64740001),-17.4,14.2,7093618,130094118,1.498976359,0.974417474,1.258130182,1.04015625,0.515181143,0.637799255,0.257936713,0.634683193
Africa,GRDC,1255150,OMBUKU (64740002),-17.265806,13.313,7093423,130090685,10.12336918,2.828163922,0.356625311,0.294853754,0.079171472,0.130434466,-8.192264218,-1.143725442
Africa,GRDC,1257100,RUNDU (64932101),-17.9,19.75,7094267,120754363,2.415325587,1.012904415,1.302845687,1.020757302,0.846805709,0.878262362,-0.455448563,0.875833008
Africa,GRDC,1257101,MUKWE (64932102),-18.033333,21.416667,7094505,120672836,2.258714239,1.021969422,1.915398826,0.975431957,0.832689459,0.86209817,-0.565346404,0.858214391
Africa,GRDC,1257200,OUSEMA (64932301),-21.216667,17.1,7098054,120686354,1.629006999,1.209867175,0.931025455,0.915093657,0.657598695,0.652492425,0.280523839,0.585253291
Africa,GRDC,1258100,SESFONTEIN,-19.173889,13.571083,7095914,120732815,24.77036024,2.5691722,0.445578794,0.448503452,0.214344706,0.26656782,-22.78980166,-0.817793332
Africa,GRDC,1258150,ROOIBERG (64735002),-20.476806,14.587917,7097346,120598114,5.438308336,1.292452031,0.875927106,0.8001426,0.224111468,0.203565264,-3.507324926,0.128346709
Africa,GRDC,1258200,VINGERKLIP (64734002),-20.4,15.466667,7097216,120719582,0.399466171,1.727983311,0.619772843,0.641558147,0.109548522,0.110003998,-0.139349554,-0.204380815
Africa,GRDC,1258201,UGAB SLAB (64734003),-21.066667,13.8,7098003,120761223,61.06190841,4.566157503,0.241463497,0.288051132,0.180508217,0.176144826,-59.072288,-2.72868447
Africa,GRDC,1258202,PETERSBURG (64734001),-20.2,16.133333,7097129,120691280,49.04435537,2.595185766,0.435478822,0.409391757,0.254472522,0.247091457,-47.05345543,-0.860190044
Africa,GRDC,1258270,SESRIEM (64722401),-24.516667,15.766667,7101437,120615014,10.82439494,3.420641029,0.334626829,0.320191889,0.116521366,0.117796061,-8.886454973,-1.664568604
Africa,GRDC,1258300,ETEMBA (64733002),-21.433333,15.666667,7098295,120707998,2.37233123,1.762070638,0.692950018,0.66899234,0.33100218,0.350328891,-0.557283141,-0.054699141
Africa,GRDC,1258301,OMBURO (64733003),-21.3,16.2,7098140,120606487,0.759486449,0.960197832,0.983323295,0.995416227,0.412985771,0.399015439,0.36540518,0.397681425
Africa,GRDC,1258350,AMEIB (64732004),-21.816667,15.616667,7098731,120709689,3.723346991,3.045403433,0.421091277,0.399004796,0.15783438,0.207364337,-1.90877931,-1.274454161
Africa,GRDC,1258355,DAWIB (64732005),-21.866667,15.566667,7098730,120533306,2.849387495,1.570653585,0.711513859,0.683169363,0.362482224,0.376890499,-0.97734349,0.097618364
Africa,GRDC,1258400,WESTFALENHOF (64732003),-22.266667,16.416667,7099154,120689750,84.62514191,16.30057576,0.242612662,0.286142679,0.215997988,0.201411242,-82.6322465,-14.33802317
Africa,GRDC,1258500,GOBABEB,-23.5,14.966667,7100387,120706469,9.498091733,1.561284682,0.514281194,0.638473908,0.460751466,0.474003462,-7.529025433,0.150050609
Africa,GRDC,1258501,SCHLESIEN WEIR (64731001),-23.266667,15.8,7100131,120681492,13.60147225,3.117146258,0.548853992,0.454851651,0.187077001,0.206884654,-11.63572236,-1.325623992
Africa,GRDC,1258502,US (64731002),-22.966667,16.383333,7099866,120646529,8.363873187,1.543058411,0.745642579,0.621454555,0.187866986,0.191416877,-6.412886486,-0.044995579
Africa,GRDC,1258503,ROOIBANK (64731011),-23.166667,14.65,7100042,120342031,12.66831635,3.061660088,0.222650299,0.314898031,0.570339726,0.659024769,-10.7020719,-1.199106894
Africa,GRDC,1258505,KOS WEIR (64731008),-23.216667,16.166667,7100089,120520082,192.1143085,6.106410603,0.339196878,0.205771741,0.058859299,0.090261176,-190.1177682,-4.247270958
Africa,GRDC,1258506,TWEESPRUIT (64731007),-22.916667,15.916667,7099974,120531711,14.56094587,2.612850033,0.408547783,0.373013543,0.140690626,0.092894409,-12.6010103,-0.953775269
Africa,GRDC,1258507,WESTENDE (64731006),-22.866667,16.566667,7099702,120431868,136.139761,3.818132679,0.314254104,0.241699127,0.069563931,0.416506125,-134.1447038,-1.976131233
Africa,GRDC,1258508,WASSERVALLEI (64731004),-22.8,16.516667,7099773,120521719,31.54372868,1.526630992,0.905373583,0.688723126,0.187614296,0.306443676,-29.554677,0.075200634
Africa,GRDC,1258509,STANCO (64731003),-22.716667,16.6,7099637,120548337,2.73874886,1.167945007,0.726670107,0.763114059,0.06588104,0.056051383,-0.992620149,0.012397111
Africa,GRDC,1258510,GREYLINGSHOF,-23.466667,15.766667,7100349,120651555,2.812206769,1.034576768,0.574930785,0.594148385,0.224711411,0.255145286,-1.016395201,0.151047922
Africa,GRDC,1258520,MONRAVIA (64732002),-22.516667,17.066667,7099391,120503400,34.94985756,1.463172642,1.075446016,0.653692722,0.123053788,0.224031483,-32.96126551,0.032226903
Africa,GRDC,1258530,HEUSIS (64731005),-22.616667,16.633333,7099637,120581614,50.05615111,1.843943234,0.699994036,0.486109703,0.066790335,0.108788751,-48.06594385,-0.330631771
Africa,GRDC,1259060,DRAAIHOEK (64812002),-24.183333,17.016667,7101038,120550097,1.238362281,1.568052434,0.668991864,0.706846981,0.360588117,0.348158272,0.241560471,0.087026891
Africa,GRDC,1259070,KARRIS (64812005),-24.35,17.566667,7101190,120615003,0.109198198,1.238858346,1.068030631,0.774565789,0.257313979,0.246080666,-0.161782485,0.17764469
Africa,GRDC,1259080,RIETKUIL (64812006),-25.116667,17.516667,7101868,120546828,0.690913587,1.594797368,1.324706731,0.867398464,0.428082274,0.498755964,0.273323486,0.210941916
Africa,GRDC,1259090,HOLOOG (64812015),-27.433333,17.966667,7103566,120555297,2.445956509,3.034965661,0.316129417,0.3179757,0.159518103,0.136349381,-0.806897623,-1.313468128
Africa,GRDC,1259100,AI-AIS (64812014),-27.916667,17.5,7103861,120550335,0.608435587,2.325836783,0.527430356,0.520830961,0.215511605,0.239316872,0.003974498,-0.601900423
Africa,GRDC,1259101,SEEHEIM (64812008),-26.8,17.783333,7103101,120615160,0.520062139,3.522868665,0.521953299,0.510660579,0.175865717,0.171723995,-0.06680191,-1.70006676
Africa,GRDC,1259102,TSES (64812009),-25.9,17.966667,7102612,120600127,0.45053171,1.774891701,0.434004807,0.322720419,0.150583769,0.107706702,-0.159212618,-0.362113104
Africa,GRDC,1259103,GRASS (64812001),-24.167,17.35,7100987,120684880,0.960860819,2.400301237,0.706307841,0.738716874,0.368846666,0.308055266,0.302761526,-0.58363504
Africa,GRDC,1259104,DIRICHAS (64812003),-24.266667,17.066667,7101170,120575062,0.129816156,1.087021194,1.118856471,0.908588965,0.401216892,0.433530414,-0.062961897,0.419641096
Africa,GRDC,1259110,ALTDORN (64812011),-26.8,18.216667,7103100,120581880,0.164841419,0.642087277,1.750145148,1.48374297,0.466412243,0.51017761,-0.242949513,0.224091016
Africa,GRDC,1259111,AIKANES (648120210),-26.867,18.1,7103166,120615165,1.20202038,5.0341081,1.136947312,0.919217638,0.117210573,0.308799688,0.084093906,-3.093691711
Africa,GRDC,1259112,GEDULD (64812012),-26.766667,18.466667,7103082,120561911,0.465378236,0.855140149,1.37683773,1.166674927,0.362101365,0.376169628,0.086357961,0.338237776
Africa,GRDC,1259150,SEAKA BRIDGE (66819303),-30.363333,27.575,7105254,120467293,1.542380186,1.836888872,0.564658546,0.83829728,0.642999915,0.71865095,0.218240761,0.102398729
Africa,GRDC,1259151,WHITEHALL (66819304),-30.063333,28.508333,7105099,120492233,1.434737606,1.38944558,0.581883775,0.883145647,0.634556326,0.645568101,0.294757458,0.460607035
Africa,GRDC,1259152,KOMA-KOMA (66819305),-29.59,28.713333,7104868,120470571,1.954559296,1.195441592,0.635346535,0.990808226,0.609151271,0.699962073,-0.094037627,0.641803599
Africa,GRDC,1259170,TSOELIKE BRIDGE (66819307),-30.016667,28.723333,7105081,120412359,0.63787163,1.034832481,0.701108849,0.979247489,0.665267065,0.793077977,0.423355383,0.789142958
Africa,GRDC,1259200,QUTHING (66819340),-30.4,27.696667,7105248,120394080,0.412420636,0.916290692,1.28003616,1.269590801,0.485033361,0.445386554,0.170023856,0.377679726
Africa,GRDC,1259201,BRECKHORN (64812007),-24.816667,17.166667,7101672,120563449,0.691480597,0.904178638,1.622814274,1.078772997,0.339254552,0.423438413,0.041007618,0.410245659
Africa,GRDC,1259220,MOHLOKAQALA (66818039),-29,27.7,7104501,120443909,1.20947951,0.953790733,1.083720465,1.274913434,0.511096934,0.510653521,0.461560599,0.436819151
Africa,GRDC,1259230,LOWER QEME (66818044),-29.526667,27.495,7104813,120384039,0.123410719,3.813731898,0.424546844,0.490050459,0.14179077,0.110655961,-0.355019625,-1.994673362
Africa,GRDC,1259240,BUTHA-BUTHE (66818046),-28.751667,28.265,7104349,120297463,25.0241789,4.308987746,0.261584573,0.332159658,0.139976628,0.123381147,-23.05090579,-2.487674187
Africa,GRDC,1259250,MASIANOKENG (66818024),-29.398333,27.561667,7104752,120438943,0.499398503,0.843438495,1.041429988,1.049882569,0.310166142,0.360349909,0.146660059,0.339581939
Africa,GRDC,1259260,MAPOTENG (66818034),-29.116667,28,7104611,120473868,1.19323325,0.986193244,1.014620408,1.085671544,0.405360414,0.472258307,0.374580875,0.465171491
Africa,GRDC,1259261,KLEIN AUB (64812004),-23.8,16.6,7100923,120551736,1.050274298,0.666299461,0.851510983,1.086105167,0.156236738,0.287509122,0.141796682,0.208537177
Africa,GRDC,1259300,MOLIMO-NTHUSE (66819219),-29.433333,27.9,7104915,120417313,2.511881188,2.178076598,0.376651948,0.553833222,0.221777522,0.415286306,-0.811070884,-0.388819415
Africa,GRDC,1259301,QABA (66819223),-29.866667,27.561667,7105083,120457279,0.877718203,1.326589523,0.871150902,1.054337725,0.515238737,0.598236707,0.483716735,0.479397417
Africa,GRDC,1259310,SEMONKONG (66819318),-29.821667,28.035,7105093,120443961,0.747071377,1.551461662,0.388186293,0.853576929,0.428604272,0.634332312,0.125481859,0.322310884
Africa,GRDC,1259320,PARAY (66819308),-29.483333,28.656667,7104792,120447268,1.276630676,1.842355962,0.539065999,0.768967258,0.459975797,0.439728252,0.238021769,-0.037711003
Africa,GRDC,1259321,OX BOW (66819310),-28.766667,28.62,7104523,120412278,2.064376109,1.093646451,0.698358971,1.014022768,0.27513585,0.283717021,-0.322615532,0.277485224
Africa,GRDC,1259350,GOCHAS,-25.016667,18.883333,7102052,120631682,22.49222923,1.863343335,0.54171099,0.594981837,0.262263505,0.248547221,-20.5097699,-0.214118077
Africa,GRDC,1259360,MARAKABEI (66819317),-29.56,28.09,7104857,120480552,0.29958486,3.116630464,0.288861473,0.472900121,0.328043382,0.307768483,-0.203256028,-1.288480561
Africa,GRDC,1259370,STAMPRIET,-24.316667,18.433333,7101313,120671579,10.01841434,1.071795208,1.354894622,1.174159039,0.402387099,0.499652377,-8.045158299,0.465365857
Africa,GRDC,1259400,BETHANIEN (64812013),-26.433333,17.116667,7102893,120370529,2.639787737,2.231297874,0.772555458,0.675833959,0.3050589,0.308654765,-0.795432532,-0.448839643
Africa,GRDC,1259440,AMASIB (64813203),-23.066667,18.633333,7099960,120714757,291.4190592,15.90967727,0.337573912,0.396316896,0.094391757,0.069428932,-289.4212267,-13.95088199
Africa,GRDC,1259450,MENTZ (64813202),-23.116667,18.683333,7099961,120644875,60.76111505,2.162830912,0.507538231,0.489881267,0.220472732,0.277458347,-58.76822779,-0.46098025
Africa,GRDC,1259451,HENOPSRUS (64813201),-22.133333,18.816667,7099583,120658124,10.08828647,1.240635871,0.732098801,0.766915678,0.162367422,0.309469048,-8.130736568,0.232493049
Africa,GRDC,1259460,TSAMAB (64811001),-28.133333,19.25,7103969,120533709,0.163353495,0.493777213,2.456221162,1.73615722,0.178022133,0.15563122,-0.869814178,-0.229287436
Africa,GRDC,1259500,OX BOW (66819311),-28.725,28.62,7104460,120345713,1.845480133,0.495181615,2.160313199,1.883492103,0.396996505,0.456409726,-0.557169416,-0.153642182
Africa,GRDC,1259510,OX BOW (66819312),-28.74,28.666667,7104523,120430579,6.533622956,1.472640512,0.495479644,0.651748082,0.257218357,0.272044726,-4.606001104,0.064806259
Africa,GRDC,1259520,MAHLASELA (66819314),-28.833333,28.72,7104525,120403963,5.539677671,1.200888155,0.676429514,0.810923551,0.406748921,0.420218942,-3.589696946,0.357931445
Africa,GRDC,1259600,SESHOTES (66819342),-29.281667,28.566667,7104735,120448919,1.774633975,1.006919494,0.533264416,0.810456051,0.428585565,0.478925295,-0.06977304,0.445478913
Africa,GRDC,1259620,MANTSONYANE (66819364),-29.470556,28.353056,7104829,120375715,2.463218172,2.29085608,0.426349561,0.618584831,0.418212566,0.506618168,-0.675875552,-0.433601264
Africa,GRDC,1259800,MOKHOTLONG (66819306),-29.283333,28.983333,7104686,120458904,0.690639548,2.706213187,0.225993063,0.410424508,0.343172151,0.421894342,-0.061232044,-0.89551282
Africa,GRDC,1259810,TLOKOENG (66819336),-29.238333,28.885,7104690,120537108,3.135936103,2.537510337,0.23087573,0.428833489,0.284219479,0.432718674,-1.380360673,-0.735504919
Africa,GRDC,1269200,MWANZA SHINYANGA ROAD BR. (55113004),-2.925,33.155556,7076534,160168155,8.083536412,4.387537708,0.316629341,0.415408835,0.495512342,0.470502263,-6.13428282,-2.478149853
Africa,GRDC,1270900,KALEBE BRIDGE (55111003),-1.477778,31.673333,7074728,160212492,0.076816223,1.204810616,1.670905175,1.312935922,0.552205214,0.807191796,-0.225929121,0.579225377
Africa,GRDC,1286150,GREAT NORTH ROAD (55232109),-8.85,34.183333,7083642,110431394,3.642650656,1.004149953,2.074214835,1.088112577,0.361105297,0.614017957,-1.923307449,0.60406669
Africa,GRDC,1286200,IGAWA (55232111),-8.783333,34.366667,7083681,110469439,2.468325806,1.314460142,2.236279794,1.425754837,0.496681899,0.595971753,-0.984363252,0.334123745
Africa,GRDC,1286210,D/S IYAYI (55232112),-8.85,34.566667,7083650,110418274,0.821233187,1.277838434,0.711337229,0.795241829,0.251917082,0.315480584,0.178469829,0.233392581
Africa,GRDC,1286220,IYAYI (55232123),-8.858333,34.558333,7083522,110426145,1.350204144,5.777712416,0.889680667,0.927843135,0.206100821,0.240881051,0.125306222,-3.838181903
Africa,GRDC,1286400,IHIMBU (55232321),-7.883333,35.8,7082489,110485159,3.69864862,1.197277761,2.359288693,1.056482837,0.604810337,0.794419281,-2.047383303,0.709530969
Africa,GRDC,1286401,IRINGA NDIUKA (55232302),-7.783333,35.716667,7082325,110487780,3.490241241,1.23664116,2.451687222,0.901248799,0.60199881,0.763286589,-1.909828548,0.651024245
Africa,GRDC,1286402,IWAWA (55232339),-8.05,35.683333,7082670,110466796,3.240125624,1.171764487,2.098822902,1.157045857,0.527929785,0.746947463,-1.539374898,0.656194784
Africa,GRDC,1286403,MAKALALA (55232332),-8.333333,35.333333,7082927,110357907,5.487764317,1.082610272,2.519158288,1.164542179,0.461887007,0.81857394,-3.768378766,0.741515956
Africa,GRDC,1286410,MTITU (55232322),-8.016667,35.783333,7082663,110397259,2.662515905,1.145174092,3.160344916,0.999505134,0.46447334,0.667603447,-1.778099727,0.63728354
Africa,GRDC,1286500,MGETA,-8.32,36.07,7083045,110392017,37.00884833,1.808270628,0.710768759,0.602846657,0.341991366,0.525880985,-35.01602127,-0.01775293
Africa,GRDC,1286600,MTANDIKA (55232437),-7.566667,36.433333,7082080,110489086,1.899935156,1.451705807,2.714796218,1.379494064,0.427653415,0.600681576,-1.019403369,0.287603282
Africa,GRDC,1286650,SONJO (55233023),-7.8,36.966667,7082479,110418244,12.90831544,2.008326605,0.649249175,0.55469399,0.373300807,0.48566928,-10.929952,-0.21637004
